id,Provider Name,Business Address,age,sex,bmi,children,smoker,hypertension,heart_disease,ever_married,work_type,Residence_type,avg_glucose_level,bmi,region,City,Guardian Name,ID,"Longitude,N,24,15","Latitude,N,24,15"
36306,"Yee, David","929 Clay St, Ste 405",19,female,27.9,0,yes,0,0,Yes,Private,Urban,83.84,21.1,southwest,San Francisco,DAVID S         MD      YEE,1104991751,-122.408321,37.79385
61829,"Reddy, Lalitha",591 W Putnam Ave,18,male,33.77,1,no,0,1,Yes,Self-employed,Rural,179.5,26,southeast,Tulare,Designated Payee Name not Found,1104992981,-119.030311,36.06934
14152,"AGUILAR, VIRGINIA",7862 E FIRESTONE BLVD,28,male,33,3,no,0,0,No,children,Rural,95.16,21.2,southeast,Los Angeles,TOMAS MED CLINIC       SANTO,1255400669,-118.140758,33.944175
12997,"PRING, MAYA","3020 CHILDREN'S WAY, MC5003",33,male,22.705,0,no,0,0,No,Private,Urban,94.76,23.4,northwest,San Diego,CHILDRENS HOSPITAL      RADY,1669617197,-117.151331,32.7981
40801,"Lim, Bun","3030 W Olympic Blvd, #206",32,male,28.88,0,no,0,0,Yes,Govt_job,Rural,83.57,27.6,northwest,Los Angeles,BUN RAYMOND MD      LIM,1104999788,-118.301561,34.05235
9348,"Kostishack, Amy",751 S BASCOM AVENUE,31,female,25.74,0,no,1,0,Yes,Private,Urban,219.98,32.2,southeast,Santa Clara,CLARA MED CTR       SANTA,1063406551,-121.933911,37.31439
51550,"Davis, Julian",5461 Foothill Blvd,46,female,33.44,1,no,0,0,Yes,Self-employed,Rural,74.03,25.1,southeast,Alameda,JULIAN R JR MD        DAVIS,1114003563,-122.197131,37.77241
60512,"Berthold, Robert","14623 Hawthorne Blvd, Suite 400",37,female,27.74,3,no,0,0,Yes,Govt_job,Urban,120.8,32.5,northwest,Los Angeles,CNTY DEPT MENTAL HEALTH   LA,1699703827,-118.352991,33.89857
31309,"Choi, Myeong",1224 Vine St,37,male,29.83,2,no,0,0,Yes,Self-employed,Rural,78.71,28,northeast,Los Angeles,OF LOS ANGELES DEPARTMENT COUNTY,1699703827,-118.326081,34.09328
39199,"Seneviratna, Swarnapali",270 Grant Avenue,60,female,25.84,0,no,0,0,Yes,Self-employed,Urban,77.2,25.7,northwest,Santa Clara,COMMUNITY HLTH       MAYVIEW,1780796540,-122.142001,37.42701
15160,"Saucedo, Bertha",2005 Lyon Ave,25,male,26.22,0,no,0,0,No,Private,Rural,78.16,21.9,northeast,San Mateo,MATEO MEDICAL CENTER     SAN,1003985755,-122.297491,37.52351
21705,"BOWER, KIMBERLY","3020 CHILDREN'S WAY, MC5003",62,female,26.29,0,yes,0,0,No,children,Urban,107.23,19.4,southeast,San Diego,CHILDRENS HOSPITAL      RADY,1669617197,-117.151331,32.7981
19042,"LUNA, AILEEN",6901 Atlantic Ave,23,male,34.4,0,no,0,0,Yes,Private,Rural,91.6,26.7,southwest,Los Angeles,HEALTH SERVICES      ALTAMED,1518171016,-118.18787,33.972924
12249,"LUNA, CELLINI",6901 Atlantic Ave.,56,female,39.82,0,no,0,0,Yes,Private,Urban,83.05,32.3,southeast,Los Angeles,HEALTH SERVICES      ALTAMED,1518171016,-118.18787,33.972924
33104,"Kilkenny, Thomas","1165 S Dora St, Suite C1",27,male,42.13,0,yes,0,0,Yes,Govt_job,Urban,236.6,24.2,southeast,Mendocino,ADVENTIST HOSPITAL     UKIAH,1952471542,-123.208441,39.13629
55264,"tejani, nasir",711 Pepper tree lane,19,male,24.6,1,no,0,0,No,Self-employed,Urban,109.49,24.5,southwest,Los Angeles,"H TEJANI MD, INC       NASIR",1114008067,-118.108971,33.77501
29445,"VALENCIA, RAINILDA","12677 Hesperia Rd, SUITE 160",52,female,30.78,1,no,0,0,Yes,Self-employed,Rural,109.66,40,northeast,San Bernardino,Designated Payee Name not Found,1548539653,-117.289161,34.48116
49013,"Nelson, David",959 Myrtle Avenue,23,male,23.845,0,no,0,0,No,Private,Rural,88.51,22.1,northeast,Humboldt,COMM HEALTH CTR       EUREKA,1851486989,-124.149354,40.800293
276,"Karpowicz, Scott",2500 Alhambra Avenue,56,male,40.3,0,no,0,0,No,children,Rural,101.36,22.3,southwest,Contra Costa,COSTA CO HLTH SVS     CONTRA,1902975394,-122.132641,38.00674
47721,"Pan, Carolyn",751 S. Bascom,30,male,35.3,0,yes,0,0,Yes,Govt_job,Urban,165.44,36.1,southwest,Santa Clara,CLARA MED CTR       SANTA,1063406551,-121.931932,37.313862
19656,"singh, balbir","6740 vesper avenue, suite 102",60,female,36.005,0,no,1,0,Yes,Self-employed,Rural,101.06,33.3,northeast,Los Angeles,BALBIR MD INC        SINGH,1891888509,-118.450511,34.19338
35806,"Kannan, Nirmala",1090 La Playa Dr,30,female,32.4,1,no,0,0,Yes,Private,Urban,81.54,36.3,southwest,Alameda,NIRMALA         KANNAN,1114014172,-122.105301,37.64743
70637,"Arteaga-Hernandez, Edna","851 W Foothill Blvd, Suite 101",18,male,34.1,0,no,0,0,Yes,Private,Rural,150.06,22.2,southeast,San Bernardino,Designated Payee Name not Found,1114016433,-117.386471,34.10619
62010,"Hernandez, Raul",851 W Foothill Blvd Ste 101,34,female,31.92,1,yes,0,0,No,children,Urban,87.79,20.5,northeast,San Bernardino,Raul Manuel Hernandez,1114016458,-117.386471,34.10619
67576,"Han, Jason",1725 W 6TH ST,37,male,28.025,2,no,0,0,Yes,Private,Rural,205.8,36.5,northwest,Los Angeles,"SEDGH, MANAVI and PAKRA COHEN",1528363207,-118.270481,34.0579
31774,"HASSAN, HESHAM","7239 VAN NUYS BLVD, SUITE #6",59,female,27.72,3,no,1,1,Yes,Private,Rural,93.79,33.1,southeast,Los Angeles,Designated Payee Name not Found,1033274519,-118.450341,34.20278
43822,"Cruz, Edwin",2406 W Edinger Ave #A,63,female,23.085,0,no,0,0,Yes,Govt_job,Rural,60.6,26.9,northeast,Orange,Edwin Cruz,1982761631,-117.901401,33.72698
27445,"ABDEL-AZIM, HISHAM","6430 Sunset Blvd., Suite 600",55,female,32.775,2,no,0,0,Yes,Private,Urban,94.8,40.6,northwest,Los Angeles,CHILDRENS MED     UNIVERSITY,1265530653,-118.329806,34.097958
35817,"Rothman, Edward",1601 Fruitvale Ave.,23,male,17.385,1,no,0,0,Yes,Private,Urban,75.12,27.7,northwest,Alameda,CLINICA DE LA RAZA    LA,1144336181,-122.22464,37.780079
26363,"ROBERTS, SUZANNE","6430 Sunset Blvd., Suite 600",31,male,36.3,2,yes,0,0,Yes,Private,Urban,116.78,22.4,southwest,Los Angeles,CHILDRENS MED     UNIVERSITY,1265530653,-118.329806,34.097958
44463,"Amster, Michael",1200 B Gale Wilson Blvd,22,male,35.6,0,yes,1,0,Yes,Private,Rural,150.14,35.1,southwest,Solano,HEALTHCARE GRP      NORTHBAY,1780736736,-122.048461,38.26159
17002,"IWASIUK, GOSTA",5855 Olivas Park Dr,18,female,26.315,0,no,0,1,Yes,Private,Rural,212.68,25.5,northeast,Ventura,MEM HEALTH SYSTEMS      COMM,1215903018,-119.208061,34.24279
55223,"Tiller, Michael",155 5th Street,19,female,28.6,5,no,0,0,No,children,Rural,128.82,28.4,southwest,San Francisco,University of the Pacific Arthur A. Dugoni School,1588050942,-122.405021,37.78231
42974,"BUCKWAY, CAROLINE","725 Welch Rd, Mail Code 5289",63,male,28.31,0,no,0,0,No,children,Rural,147.95,18.7,northwest,Santa Clara,MEDICAL GROUP DIV OF    LPCH,1417907940,-122.175211,37.43622
51133,"Felobous, Sylvia Mary","8204 Long Beach Blvd, Suite B",28,male,36.4,1,yes,0,0,No,children,Urban,78.88,20.9,southwest,Los Angeles,MIGUEL MEDICAL     SAN,1801992565,-118.224939,33.963306
16974,"Ching, James","1700 Mount Vernon Ave, Kern Medical Center",19,male,20.425,0,no,0,0,Yes,Self-employed,Rural,84.02,26.7,northwest,Kern,COUNTY HOSPITAL      KERN,1427176569,-118.969811,35.38221
27813,"GAMAL, REDA",1125 E 17TH ST SUITE W-238,62,female,32.965,3,no,0,0,Yes,Private,Rural,116.33,33.5,northwest,Orange,REDA MD        GAMAL,1114028545,-117.854791,33.76146
65408,"Saunders, Lori","Family Health Centers of San Diego, Inc., 1809 National Ave.",26,male,20.8,0,no,0,0,Yes,Private,Rural,97.92,44.7,southwest,San Diego,HEALTH CTRS OF SD     FAMILY,1447281936,-117.113408,32.694953
67455,"BEORIS, PETER",475 Bruce St,35,male,36.67,1,yes,0,1,Yes,Self-employed,Rural,132.56,33.7,northeast,Siskiyou,HOSP          SISKIYOU,1093892275,-122.646481,41.71822
4577,"Anders, Alpha",2811 H St,60,male,39.9,0,yes,0,0,No,Private,Rural,105.36,25.3,southwest,Kern,ALPHA J MD         ANDERS,1114032620,-119.021501,35.38529
55641,"Nath, Rekha","710 N Euclid St, Suite 106",24,female,26.6,0,no,0,0,Yes,Private,Urban,116.69,27.8,northeast,Orange,AND MULTI SPECIALTY  PRIMARY,1053408278,-117.940691,33.84209
54834,"Huang, Laurence","1001 Potrero Ave., Room 2A5",31,female,36.63,2,no,0,0,No,Self-employed,Rural,80.63,24.8,southeast,San Francisco,FRANCISCO GEN HOSP     SAN,1083648810,-122.405371,37.75529
9699,"Havlir, Diane","1001 Potrero Ave., Room 2A5",41,male,21.78,1,no,0,0,Yes,Private,Rural,65.85,21.6,southeast,San Francisco,FRANCISCO GEN HOSP     SAN,1083648810,-122.405371,37.75529
61811,"Tsuang, John","21840 Normandie Ave, Ste. 200",37,female,30.8,2,no,0,0,Yes,Private,Urban,192.53,33.7,southeast,Los Angeles,OF LOS ANGELES DEPARTMENT COUNTY,1699703827,-118.299171,33.829841
63620,"CHHIPWADIA, AMISHA",1145 Broadway,38,male,37.05,1,no,0,0,No,Private,Urban,58.17,20.3,northeast,San Diego,FAMILY HLTH CTR     DOWNTOWN,1427093566,-117.153991,32.7155
18723,"Francis, Paul",9300 Valley Childrens Pl,55,male,37.3,0,no,1,0,Yes,Private,Rural,93.61,37.6,southwest,Madera,MEDICAL GROUP      SPECIALTY,1013968296,-119.800418,36.884409
48538,"DHILLON, HARPREET","2287 Mowry Avenue, Suite F",18,female,38.665,2,no,0,0,Yes,Private,Urban,62.69,21.5,northeast,Alameda,HARPREET S MD INC   DHILLON,1265759088,-121.982791,37.55725
45891,"Shaw, Fonda","1908 N Beale Rd, Ste. E",28,female,34.77,0,no,0,0,Yes,Private,Urban,58.87,23.1,northwest,Yuba,HEALTH MEDICAL       HARMONY,1124130620,-121.545761,39.12751
42487,"Taylor, Terrence","5 Mareblu, Ste. 100",60,female,24.53,0,no,0,0,Yes,Private,Rural,133.7,26.3,southeast,Orange,OF ORANGE        COUNTY,1104963347,-117.702461,33.57272
45698,"Haidar, Louie",4004 BEYER BLVD,36,male,35.2,1,yes,0,0,Yes,Govt_job,Urban,173.02,29.2,southeast,San Diego,YSIDRO HEALTH CTR     SAN,1952364747,-117.047321,32.55894
24263,"Turpin, Susan",747 52nd Street,18,female,35.625,0,no,0,0,Yes,Govt_job,Rural,105.92,42.9,northeast,Alameda,HOSP MED CTR       CHILDRENS,1003961251,-122.267631,37.83706
41707,"Green, Stephanie",7515 Van Nuys Boulevard,21,female,33.63,2,no,0,0,Yes,Private,Urban,108.39,30.9,northwest,Los Angeles,ANGELES COUNTY     LOS,1467465641,-118.449591,34.20713
71360,"Ferrarone, Carlo",3569 Round Barn Circle,48,male,28,1,yes,0,0,Yes,Private,Rural,57.23,32.6,southwest,Sonoma,COMM HLTH CTR      SOUTHWEST,1578631172,-122.729721,38.47971
38487,"Frances, Denise",1525 4th Avenue,36,male,34.43,0,yes,0,0,Yes,Private,Urban,161.13,31.4,southeast,San Diego,AND MARY WEST SENIOR    GARY,1396111530,-117.160821,32.72165
56093,"Edwards, Neal",2000 Embarcadero Suite 101,40,female,28.69,3,no,0,0,No,children,Rural,68.8,19.1,northwest,Alameda,of Alameda County,1659402303,-122.242663,37.780389
56207,"Modilevsky, Tamara","14445 Olive View Drive, Rm 2B182",58,male,36.955,2,yes,1,0,Yes,Private,Rural,100.65,27.8,northwest,Los Angeles,ANGELES CO     LOS,1316969934,-118.445531,34.32593
68130,"Pham, Lan",14044 Magnolia St #125,58,female,31.825,2,no,0,0,No,Private,Rural,112.66,39.9,northeast,Orange,"NGOC PHAM, DDS, INC     LAN",1710016464,-117.972365,33.757997
60780,"aschrafnia, salahuddin",1959 Kingsdale Avenue,18,male,31.68,2,yes,0,0,No,Private,Rural,77.1,23.4,southeast,Los Angeles,MEDICAL GROUP      SOMA,1063434900,-118.357291,33.87199
22130,"Yanez, Janetta","6801 Coldwater Canyon Ave, Suite 1B",53,female,22.88,1,yes,0,0,Yes,Private,Rural,85.6,21.7,southeast,Los Angeles,COMMUNITY HEALTHCARE  VALLEY,1588740989,-118.413825,34.194221
63352,"Spencer, Laurene",433 Turk St,34,female,37.335,2,no,0,0,No,Private,Rural,96.72,27.6,northwest,San Francisco,COMM HEALTHCARE       BAART,1982781159,-122.416301,37.78222
71720,"ROSTAMI, NEJAT",2972 Wilshire Blvs,43,male,27.36,3,no,0,0,No,Private,Rural,114.15,29.1,northeast,Los Angeles,ROSTAMI MEDICAL       NEJAT,1609913441,-118.28624,34.061747
17183,"Swallow, James","721 River Drive, Suite A",25,male,33.66,4,no,0,0,Yes,Private,Rural,94.35,29.6,southeast,Mendocino,COAST HEALTH       MENDOCINO,1124220249,-123.802171,39.43193
60719,"Meyer-Frank, Beth",6801 Coldwater Canyon Ave,64,male,24.7,1,no,0,0,Yes,Govt_job,Rural,63.72,29.1,northwest,Los Angeles,COMMUNITY CLINIC      VALLEY,1588740989,-118.413825,34.194221
43983,"OHANIAN, CARMEN","1110 n brand blvd., suite 201",28,female,25.935,1,no,0,0,Yes,Private,Rural,73.24,33.6,northwest,Los Angeles,CARMEN DDS          OHANIAN,1114073350,-118.254611,34.16188
21744,"Lin, Brent",707 Parnassus Ave # 0753,20,female,22.42,0,yes,0,0,Yes,Self-employed,Urban,74.77,37.2,northwest,San Francisco,PEDIATRIC DENTISTRY     UCSF,1619041365,-122.460981,37.762549
16560,"Morales, Maria Judina","530 South Main St., Western Dental Services Inc",19,female,28.9,0,no,0,0,No,Private,Urban,86.07,21.6,southwest,Orange,Dental Western,1477627156,-117.867453,33.779297
39376,"grkikian, jouriy",14847 Magnolia Blvd,61,female,39.1,2,no,0,0,No,Private,Urban,81.88,24.9,southwest,Los Angeles,Designated Payee Name not Found,1689077265,-118.456831,34.16515
49579,"Clark, Daniel",3291 Loma Vista Rd,40,male,26.315,1,no,0,0,Yes,Private,Urban,128.89,26.9,northwest,Ventura,CO MEDICAL CTR       VENTURA,1629167457,-119.251951,34.27648
9371,"Mohankumar, H","3300 Truxtun Avenue, Suite #290",40,female,36.19,0,no,0,1,Yes,Govt_job,Urban,232.57,,southeast,Kern,Designated Payee Name not Found,1114080314,-119.039411,35.37458
28064,"hoang, robert",243 East Mission Blvd.,28,male,23.98,3,yes,0,0,No,Private,Urban,109.72,24.9,southeast,Los Angeles,Designated Payee Name not Found,1114080694,-117.74846,34.055176
8502,"Zahedi, Malakeh",722 E. ARROW HWY,27,female,24.75,0,yes,0,0,Yes,Govt_job,Rural,98.26,21.4,southeast,Los Angeles,Designated Payee Name not Found,1689018483,-117.737814,34.089944
48035,"Wong, Siu","9324 Garvey Ave, Unit N",31,male,28.5,5,no,0,0,Yes,Private,Rural,116.48,31.9,northeast,Los Angeles,SIU WAN MD       WONG,1114082518,-118.066011,34.06226
71493,"Weinstein, Elliot","8283 Grove Ave, # 203",53,female,28.1,3,no,0,0,Yes,Private,Urban,91.55,37.6,southwest,San Bernardino,ELLIOT S MD       WEINSTEIN,1114086394,-117.627631,34.10375
65537,"PILLAI, SINDU","24910 LAS BRISAS ROAD, SUITE 114",58,male,32.01,1,no,0,0,No,Private,Urban,166.33,24.1,southeast,Riverside,SINDU MD INC         PILLAI,1114087228,-117.182071,33.57558
5028,"DE LA CRUZ, PAULA",1080 Emeline,44,male,27.4,2,no,0,0,Yes,Private,Urban,96.45,37.5,southwest,Santa Cruz,CRUZ HEALTH CTR       SANTA,1659315430,-122.017473,36.991782
39532,"Williams, Michael",3291 Loma Vista Road,57,male,34.01,0,no,1,0,Yes,Private,Rural,82.89,43,northwest,Ventura,OF VENTURA        COUNTY,1629167457,-119.251951,34.27648
58889,"Gwon, Arlene","UCI Medical Center, 101 The City Drive South",29,female,29.59,1,no,0,0,No,Private,Rural,66.11,25.1,southeast,Orange,IRVINE UNI PHY and SURG    UC,1407058787,-117.876761,33.784787
60944,"Fedovskiy, Kaney","80 Jesse Hill Jr Dr SE, #26024",21,male,35.53,0,no,0,0,No,Private,Urban,158.42,32.9,southeast,Fulton,Designated Payee Name not Found,1104942044,-84.382161,33.75168
47413,"Vazquez, Alfonso",3030 Alum Rock Ave,22,female,39.805,0,no,0,0,No,Private,Rural,144.55,25.1,northeast,Santa Clara,HEALTH CENTER     COMPRECARE,1083654545,-121.828771,37.36445
23076,"Levingston, Sonia",1411 E 31st St,41,female,32.965,0,no,0,0,No,children,Urban,113.07,19.2,northwest,Alameda,COUNTY MED CTR       ALAMEDA,1104959089,-122.231231,37.7989
28829,"Nguyen, LinhPhuong",530 South Main St.,31,male,26.885,1,no,0,0,Yes,Govt_job,Rural,108.97,25.3,northeast,Orange,Dental Western,1477627156,-117.867453,33.779297
10786,"Amin, Gaurang",530 South Main St.,45,female,38.285,0,no,0,0,Yes,Private,Urban,85.44,45.4,northeast,Orange,Dental Western,1477627156,-117.867453,33.779297
21198,"Khanna, Anubha","8170 Laguna Blvd., Suite 210",22,male,37.62,1,yes,0,0,Yes,Private,Rural,103.14,26,southeast,Sacramento,VALLEY MEDICAL        SUTTER,1952327256,-121.404321,38.42112
49596,"Jenkins, John",5335 Lakeshore Blvd,48,female,41.23,4,no,0,1,Yes,Private,Urban,87.64,26.2,northwest,Lake,COMMUNITY HEALTH   MENDOCINO,1811958952,-122.904041,39.10554
61880,"STARR, WILLIAM",3291 Loma Vista Road,37,female,34.8,2,yes,0,0,No,Private,Urban,121.38,28.3,southwest,Ventura,OF VENTURA        COUNTY,1629167457,-119.251951,34.27648
58534,"HUANG, SHERRY","3020 CHILDREN'S WAY, MC5003",45,male,22.895,2,yes,1,0,Yes,Self-employed,Urban,205.02,33.8,northwest,San Diego,CHILDRENS HOSPITAL      RADY,1669617197,-117.151331,32.7981
44724,"MUBARAK, SCOTT","3020 CHILDREN'S WAY, MC5003",57,female,31.16,0,yes,1,0,Yes,Private,Rural,190.49,28.6,northwest,San Diego,CHILDRENS HOSPITAL      RADY,1669617197,-117.151331,32.7981
23197,"Jimenez, Cesar","2550 Amar Rd, Suite A2",56,female,27.2,0,no,0,0,No,children,Rural,91.33,17,southwest,Los Angeles,CESAR A MD INC      JIMENEZ,1114099942,-117.896528,34.027306
72667,"Kim, Diane",160 Capp St,46,female,27.74,0,no,0,0,No,children,Urban,58.93,20,northwest,San Francisco,INDIAN HEALTH BOARD    URBAN,1811185259,-122.418621,37.764036
34445,"MIRZABAGI, MOSTAFA",7864 Van Nuys Blvd,55,female,26.98,0,no,0,0,Yes,Govt_job,Urban,250.31,32.5,northwest,Los Angeles,Designated Payee Name not Found,1700083078,-118.448241,34.21413
40800,"Chan, Edward",707 Parnassus Ave,21,female,39.49,0,no,0,0,Yes,Private,Urban,174.93,28.6,southeast,San Francisco,UCSF School of Dentistry,1528151529,-122.460981,37.762549
39624,"Lin, Jonson",4095 County Circle Dr,53,female,24.795,1,no,0,0,No,Private,Urban,185.45,29.1,northwest,Riverside,Riverside University Health System -Behavioral Hea,1447261540,-117.460699,33.917058
28999,"rea, lourdes",695 W Highland Ave,59,male,29.83,3,yes,0,0,Yes,Private,Rural,114.67,27.5,northeast,San Bernardino,Designated Payee Name not Found,1447593330,-117.298451,34.13561
15970,"Rajagopalan, Aruna",222 W 39th Ave,35,male,34.77,2,no,1,1,Yes,Private,Rural,92.01,43.5,northwest,San Mateo,MATEO MEDICAL CENTER     SAN,1003985755,-122.299498,37.530104
67001,"Patel, Ankur","6430 Sunset Blvd., Suite 600",64,female,31.3,2,yes,0,0,No,Private,Urban,115.29,25.9,southwest,Los Angeles,HOSPITAL LOS       CHILDRENS,1265530653,-118.329806,34.097958
22059,"Wilkins, Timothy",43563 State Highway 299 E,28,female,37.62,1,no,0,0,No,Private,Rural,86.53,25.1,southeast,Shasta,VALLEY MEDICAL CTR     BIG,1235310384,-121.424181,41.02395
63097,"Tian, Ashley",9300 Valley Childrens Pl,54,female,30.8,3,no,0,0,Yes,Private,Urban,203.19,35.9,southwest,Madera,MEDICAL GROUP      SPECIALTY,1013968296,-119.800101,36.88435
43552,"Roman, Katherine","91275 66th Ave, Suite 500",55,male,38.28,0,no,0,0,No,children,Rural,88.52,18.2,southeast,Riverside,DE SALUD DEL        CLINICAS,1932280633,-116.074051,33.56824
42932,"Nourian, Hormoz","20929 Ventura Blvd, Suite #19",56,male,19.95,0,yes,0,0,Yes,Self-employed,Rural,90.49,26.8,northeast,Los Angeles,Hormoz Nourian,1114115748,-118.589451,34.16719
8275,"Saunders, Andrew",505 Parnassus Ave,38,male,19.3,0,yes,0,0,Yes,Private,Rural,78.83,42.6,southwest,San Francisco,MEDICAL CENTER      UCSF,1639278369,-122.457745,37.763498
8268,"Mirzaie, Goli",604 Rose Ave,41,female,31.6,0,no,1,0,Yes,Self-employed,Rural,116.29,29,southwest,Los Angeles,FAMILY CLINIC        VENICE,1669418513,-118.471819,33.999192
68976,"Gordon, Monica Teresa",4095 County Circle Dr,30,male,25.46,0,no,0,0,No,Self-employed,Urban,160.56,37.8,northeast,Riverside,Riverside University Health System -Behavioral Hea,1447261540,-117.460699,33.917058
59824,"Moore, Anika","150 Tejas Place, PO Box 430",18,female,30.115,0,no,0,0,Yes,Private,Rural,83.41,20.5,northeast,San Luis Obispo,HEALTH CENTERS     COMMUNITY,1841217866,-120.498731,35.02699
38163,"Pangilinan, Juanito",530 south main street,61,female,29.92,3,yes,0,0,No,Private,Urban,108.28,27.6,southeast,Orange,DENTAL SERVICES      WESTERN,1477627156,-117.867453,33.779297
45895,"Gill, Karanbir","8170 Laguna Blvd, Suite 210",34,female,27.5,1,no,0,0,Yes,Private,Urban,91.16,26.4,southwest,Sacramento,VALLEY MEDICAL        SUTTER,1952327256,-121.404321,38.42112
35842,"Longbottom, Linda",1111 N China Lake Blvd,20,male,28.025,1,yes,0,0,No,Private,Urban,83.19,29.4,northwest,Kern,REGIONAL HOSPITAL RIDGECREST,1972813087,-117.669885,35.64126
64826,"Ferguson, Susan",616 16th St,19,female,28.4,1,no,0,0,No,children,Urban,67.62,16.6,southwest,Alameda,MEDICAL CARE        LIFELONG,1346439817,-122.274391,37.807292
56756,"Chen, Thida","1910 W. Sunset Blvd., Suite 650",26,male,30.875,2,no,0,0,No,Govt_job,Urban,65.29,23.7,northwest,Los Angeles,"INSTITUTE, INC      JWCH",1598829350,-118.261311,34.077953
33798,"Shull, Jeni",1454 E 2nd St,29,male,27.94,0,no,0,0,Yes,Private,Rural,112.94,22.3,southeast,San Bernardino,NORTON COMMUNITY     SAC,1013935915,-117.259844,34.102716
22149,"Xu, Yang",1080 Emeline,63,male,35.09,0,yes,0,0,Yes,Private,Urban,91.15,30.8,southeast,Santa Cruz,CRUZ HEALTH CTR       SANTA,1659315430,-122.017473,36.991782
50501,"Adams, Deena",321 Cherry Ln,54,male,33.63,1,no,0,0,Yes,Private,Rural,124.8,22.3,northwest,San Joaquin,MEDICAL CENTER FOR    ATHENA,1831122316,-121.231421,37.80176
17068,"Campos, Adolph",1293 6th St,55,female,29.7,2,no,0,0,No,Private,Rural,115.71,19.5,southwest,Riverside,ROSA DEL VALLE       SANTA,1649494733,-116.179531,33.67787
16498,"Sanders, Michael","14901 Rinaldi St, Suite 330",37,male,30.8,0,no,0,0,No,children,Urban,111.03,17.8,southwest,Los Angeles,Designated Payee Name not Found,1104848332,-118.457341,34.27951
67306,"Conway, Linda",8110 Mango Ave,21,female,35.72,0,no,0,0,Yes,Private,Rural,56.49,26.2,northwest,San Bernardino,MEDICAL GROUP INC   PINNACLE,1376876912,-117.432041,34.1058
39408,"Sasso, Sandra",1200 N State St,52,male,32.205,3,no,0,0,Yes,Self-employed,Urban,77.68,27.5,northeast,Los Angeles,USC MEDICAL CENTER     LAC,1396756938,-118.208281,34.05963
20820,"Castillo, Patricia","6430 Sunset Blvd, Ste 600",60,male,28.595,0,no,0,0,Yes,Private,Rural,87.01,25,northeast,Los Angeles,HOSPITAL LOS       CHILDRENS,1265530653,-118.329806,34.097958
50056,"dhaliwal, jaspal",150 Tejas Pl,58,male,49.06,0,no,0,0,Yes,Govt_job,Rural,82.68,26,southeast,San Luis Obispo,HEALTH CENTERS     COMMUNITY,1841217866,-120.498731,35.02699
67148,"Spivak, Ryan",1200 North State Street,29,female,27.94,1,yes,0,0,Yes,Private,Urban,100.99,30.8,southeast,Los Angeles,USC MEDICAL CENTER     LAC,1396756938,-118.208281,34.05963
42800,"Sackey, Carol",525 Roberts Ln,49,female,27.17,0,no,0,0,No,children,Rural,113.55,19.4,southeast,Kern,FAMILY HEALTH      OMNI,1700804556,-119.031641,35.4082
41777,"Archila, Luis",4929 E. Kings Canyon Road,37,female,23.37,2,no,1,0,Yes,Self-employed,Rural,87.2,30,northwest,Fresno,WINERY MEDICAL CLN     KINGS,1265521488,-119.730721,36.73608
38995,"Neway, Ashley",204 East Beach St,44,male,37.1,2,no,0,0,Yes,Private,Urban,113.59,22.7,southwest,Santa Cruz,PARA LA GENTE       SALUD,1730169756,-121.753761,36.91188
34695,"Chen, Jen Jen","2801 Atlantic Ave, Ground Floor specialty office",18,male,23.75,0,no,0,0,No,Private,Rural,83.06,20.1,northeast,Los Angeles,BEACH MEM MED CTR      LONG,1477596583,-118.187051,33.80821
65778,"Suskin, Shea",2790 Atlantic Ave,20,female,28.975,0,no,0,0,Yes,Govt_job,Urban,62.32,31,northwest,Los Angeles,CHILDRENS CLINIC     THE,1639233935,-118.184731,33.80774
58836,"Ngai, Steven","1000 W Carson St, L4",44,male,31.35,1,yes,0,0,No,Private,Rural,72.65,24.8,northeast,Los Angeles,ANGELES COUNTY     LOS,1427070168,-118.294551,33.83154
16182,"Shaw, Eva",6618 Van Nuys Blvd,47,female,33.915,3,no,0,0,No,Private,Rural,68.76,32.9,northwest,Los Angeles,Designated Payee Name not Found,1093030967,-118.448201,34.19124
7579,"Schachter, Levanto",4020 Fifth Ave,26,female,28.785,0,no,0,0,Yes,Private,Rural,93.52,26.1,northeast,San Diego,Designated Payee Name not Found,1093031668,-117.161331,32.75042
52338,"Wingland, Kathy",5400 Ralston St.,19,female,28.3,0,yes,0,0,No,children,Urban,91.74,18.4,southwest,Ventura,PARENTHOOD         PLANNED,1184641664,-119.217911,34.2594
65653,"Harris, Catherine",751 S BASCOM AVENUE,52,female,37.4,0,no,0,0,Yes,Govt_job,Rural,61.65,25.7,southwest,Santa Clara,CLARA MED CTR       SANTA,1063406551,-121.933911,37.31439
2203,"MATHEWS, LEENA",1428 Highland Ave,32,female,17.765,2,yes,0,0,Yes,Private,Urban,75.1,28.3,northwest,San Diego,Designated Payee Name not Found,1093046641,-117.096871,32.67243
65595,"Lakhani, Mohammed","4655 Cass Street, Suite 100",38,male,34.7,2,no,0,0,Yes,Private,Urban,188.17,12.8,southwest,San Diego,Designated Payee Name not Found,1093157372,-117.252201,32.79952
39545,"Splawn, Darla",1107 West Poplar Ave.,59,female,26.505,0,no,1,0,Yes,Self-employed,Urban,72.3,31.8,northeast,Tulare,HEALTHCARE NETWRK     FAMILY,1083611156,-119.043551,36.051565
12813,"Silva, Richard",1809 National Ave,61,female,22.04,0,no,0,0,No,Govt_job,Urban,72.86,30.8,northeast,San Diego,HEALTH CTRS OF SD     FAMILY,1447281936,-117.146861,32.70123
21091,"Sagum, Renan James Paul",2500 Alhambra Ave,53,female,35.9,2,no,0,0,Yes,Private,Rural,98.88,35,southwest,Contra Costa,COSTA CO HLTH SVS     CONTRA,1902975394,-122.132641,38.00674
1477,"Terao, Michael",747 52nd St,19,male,25.555,0,no,0,0,Yes,Private,Urban,87.45,29.9,northwest,Alameda,Michael Terao,1093058844,-122.267631,37.83706
26173,"azadeh, ramin",530 South Main St.,20,female,28.785,0,no,0,0,No,Private,Urban,101.99,23.8,northeast,Orange,Dental Western,1477627156,-117.867453,33.779297
39791,"Ghoddusi-Tabarsi, Farideh",2051 John Jones Rd.,22,female,28.05,0,no,0,1,Yes,Self-employed,Rural,78.81,33.6,southeast,Yolo,HEALTH CTRS      COMMUNICARE,1558366823,-121.769831,38.5639
46915,"Bhutra, Joni",3291 Loma Vista Road,19,male,34.1,0,no,0,0,Yes,Private,Rural,89.56,23.3,southwest,Ventura,OF VENTURA        COUNTY,1538300488,-119.251951,34.27648
67454,"Minikel, Michelle",1179 North McDowell Blvd.,22,male,25.175,0,no,0,0,No,Private,Urban,80.45,23.8,northwest,Sonoma,"HEALTH CTR, INC     PETALUMA",1588656268,-122.660401,38.26843
70583,"Breig, Nicholas","LLU School of Dentistry PBO, 11092 Anderson St",54,female,31.9,3,no,0,0,No,Private,Urban,132.85,25.4,southeast,San Bernardino,LINDA UNIV SCHOOL      LOMA,1639270846,-117.261366,34.051071
51844,"santos, arthur",498 Hale St,22,female,36,0,no,0,0,Yes,Private,Rural,122.06,21.7,southwest,San Diego,arthur david santos,1093059651,-117.042361,32.62952
14963,"Kamra, Pallavi","200 S. Wells Rd., Suite 150",34,male,22.42,2,no,0,0,Yes,Self-employed,Rural,85.21,31.7,northeast,Ventura,DEL CAMINO REAL INC CLINICAS,1841556404,-119.159071,34.29357
3413,"Esparza, Lluvia",1820 J Street,26,male,32.49,1,no,0,0,Yes,Private,Urban,74.52,38.5,northeast,Sacramento,HEALTH           WELLSPACE,1124112933,-121.481651,38.57686
9991,"Kuo, Felicia",808 W 58th St,34,male,25.3,2,yes,0,0,Yes,Govt_job,Urban,74.95,31.1,southeast,Los Angeles,JOHN'S WELL CHILD AND    ST,1285874826,-118.287611,33.98949
67876,"Pham, Yen",500 Parnassus Avenue Mu 410 E Box 0316,29,male,29.735,2,no,0,0,Yes,Self-employed,Urban,57.81,32.4,northwest,San Francisco,HOSP MED CTR       CHILDRENS,1003961251,-122.459677,37.762993
9844,"Mulligan, Meagan",11670 Atwood Road,30,male,28.69,3,yes,1,0,Yes,Govt_job,Urban,197.79,27.3,northwest,Placer,HEALTH       CHAPA-DE-INDIAN,1114057163,-121.098821,38.93431
54687,"Karimi-Noori, Homa",1200 B Gale Wilson Blvd,29,female,38.83,3,no,0,0,Yes,Private,Urban,60.67,30.3,southeast,Solano,HEALTHCARE GRP      NORTHBAY,1760534713,-122.048461,38.26159
22349,"Aguirre, Larry",333 Laws Ave,46,male,30.495,3,yes,0,0,Yes,Private,Urban,115.23,30.8,northwest,Mendocino,COMMUNITY HEALTH   MENDOCINO,1811958952,-123.211831,39.12774
843,"Ameriks, Kiyomi",1200 North State Street,51,female,37.73,1,no,1,0,No,Private,Urban,169.34,,southeast,Los Angeles,USC MEDICAL CENTER     LAC,1396756938,-118.208281,34.05963
44512,"Sanchis, Annie-Claude",743 Pismo Street,53,female,37.43,1,no,0,0,Yes,Private,Urban,135.88,30.8,northwest,San Luis Obispo,PARENTHOOD OF        PLANNED,1700803285,-120.661701,35.27676
65240,"Williams, Jennifer","1000 W Carson St, L4",19,male,28.4,1,no,0,0,No,children,Rural,109.61,15.1,southwest,Los Angeles,ANGELES COUNTY     LOS,1427070168,-118.294551,33.83154
10959,"Le, Grace",751 S BASCOM AVENUE,35,male,24.13,1,no,0,0,Yes,Private,Rural,123.76,29.3,northwest,Santa Clara,CLARA MED CTR       SANTA,1063406551,-121.933911,37.31439
5519,"rabanes-lee, carolina",3936 Stein Ct,48,male,29.7,0,no,0,0,Yes,Private,Urban,80.85,32.3,southeast,San Mateo,Designated Payee Name not Found,1043218134,-122.462811,37.64953
57956,"Arcilla, John-Vincent",26520 Cactus Avenue,32,female,37.145,3,no,0,0,Yes,Private,Rural,80.07,29.5,northeast,Riverside,OF RIVERSIDE        COUNTY,1821159195,-117.195861,33.9117
59156,"Akbery, Zulaikha",751 S Bascom Ave,42,female,23.37,0,yes,0,0,Yes,Private,Rural,85.03,42.4,northeast,Santa Clara,CLARA MED CTR       SANTA,1063406551,-121.933911,37.31439
2774,"Miyazato, Ken",751 S BASCOM AVENUE,40,female,25.46,1,no,0,0,Yes,Private,Rural,94,21.7,northeast,Santa Clara,CLARA MED CTR       SANTA,1063406551,-121.933911,37.31439
32087,"smith, tomas dante","1543 E Palmdale Blvd, Suite C",44,male,39.52,0,no,0,0,Yes,Private,Rural,107.28,38.2,northwest,Los Angeles,MEDICAL GROUP INC     ROY,1801921952,-118.101491,34.58014
43354,"O'Dowd, James",1200 North State Street,48,male,24.42,0,yes,1,0,Yes,Private,Urban,74.24,31.4,southeast,Los Angeles,USC MEDICAL CENTER     LAC,1396756938,-118.208281,34.05963
18646,"Kramer, Daniel",1200 North State Street,18,male,25.175,0,yes,0,0,No,Private,Rural,91.59,21.5,northeast,Los Angeles,USC MEDICAL CENTER     LAC,1396756938,-118.208281,34.05963
56977,"Chan, Stephanie",1200 North State Street,30,male,35.53,0,yes,0,0,Yes,Private,Urban,123.6,32.8,southeast,Los Angeles,USC MEDICAL CENTER     LAC,1396756938,-118.208281,34.05963
44941,"Lim, Imelda",2835B Highland Avenue,50,female,27.83,3,no,0,0,Yes,Private,Rural,59.09,37.4,southeast,San Diego,SAMAHAN INC        OPERATION,1275617169,-117.09183,32.660495
69886,"Hughes, Meagan",1200 North State Street,42,female,26.6,0,yes,1,0,No,Private,Urban,86.83,24.2,northwest,Los Angeles,USC MEDICAL CENTER     LAC,1396756938,-118.208281,34.05963
69927,"Ling, Christina",1200 North State Street,18,female,36.85,0,yes,0,0,No,children,Rural,125.72,18,southeast,Los Angeles,USC MEDICAL CENTER     LAC,1396756938,-118.208281,34.05963
14818,"Edginton, Melissa",344 E 6th St,54,male,39.6,1,no,0,0,Yes,Private,Urban,92.29,22.5,southwest,Madera,HEALTH          CAMARENA,1891778114,-120.055351,36.96249
56749,"Downing, Michael",2500 Alhambra Avenue,32,female,29.8,2,no,0,0,No,Private,Urban,73.7,32.6,southwest,Contra Costa,COSTA CO HLTH SVS     CONTRA,1902975394,-122.132641,38.00674
56821,"Hage, Katherine",4290 Polk Ave,37,male,29.64,0,no,0,0,No,children,Urban,69.81,24.3,northwest,San Diego,COMM CLINIC         MID-CITY,1306827332,-117.102321,32.75173
38253,"Anthony, Nisha","200 S Wells Rd, Suite 150",47,male,28.215,4,no,1,0,Yes,Govt_job,Rural,78.52,28,northeast,Ventura,DEL CAMINO REAL INC CLINICAS,1093933194,-119.159071,34.29357
21323,"Manalo, Aurora",7515 Van Nuys Boulevard,20,female,37,5,no,0,0,No,children,Rural,75.78,30.9,southwest,Los Angeles,ANGELES COUNTY     LOS,1467465641,-118.449591,34.20713
53178,"Jawed, Ismah","1999 Mowry Ave, Suite F",32,female,33.155,3,no,0,0,No,children,Rural,55.94,17.5,northwest,Alameda,HEALTH CENTER       TRI-CITY,1942387188,-121.981971,37.5584
35466,"Wu, Jia",500 W Hospital Rd,19,female,31.825,1,no,0,0,Yes,Private,Urban,97.99,25.6,northwest,San Joaquin,CONSULTANTS OF     INPATIENT,1831134253,-121.282211,37.88655
34698,"Heinzen, Enos",1400 Market Street Room 8103,27,male,18.905,3,no,0,0,No,children,Rural,103.1,18.5,northeast,Shasta,COMMUNITY HEALTH      SHASTA,1538181557,-122.391371,40.58478
31815,"CENDEJAS, FELIPE",1970 University Ave,63,male,41.47,0,no,0,0,No,children,Urban,68.57,18.7,southeast,Riverside,COMMUNITY HEALTH     BORREGO,1134144165,-117.354421,33.97527
27194,"Lim, Cathrin",1 Hope Dr,49,male,30.3,0,no,0,0,Yes,Private,Rural,194.23,31.2,southwest,Orange,"FAMILY HEALTH CLINIC,  HURTT",1306965587,-117.832117,33.714658
15380,"Dzurella, Scott",11670 Atwood Road,18,male,15.96,0,no,0,0,Yes,Govt_job,Urban,82.81,36.2,northeast,Placer,HEALTH       CHAPA-DE-INDIAN,1114057163,-121.098821,38.93431
8155,"Andrade, RiaRowena",8530 Firestone Ave.,35,female,34.8,1,no,0,0,Yes,Govt_job,Urban,79.81,35.2,southwest,Los Angeles,"INSTITUTE, INC      JWCH",1598829350,-118.129052,33.93789
42908,"Shams, Maryam",501 S. Brookhurst Rd,24,female,33.345,0,no,0,0,Yes,Self-employed,Rural,108.2,29.2,northwest,Orange,HLTH CARE       REPRODUCTIVE,1508977414,-117.959791,33.86496
30912,"Germain, Natasha",5701 S. Hoover Street,63,female,37.7,0,yes,0,0,Yes,Private,Urban,85.2,25.7,southwest,Los Angeles,JOHNS WELL CHILD    ST,1013057371,-118.287371,33.9902
35146,"Wong, Katherine",12799 Texana Street,38,male,27.835,2,no,0,0,No,Govt_job,Rural,111.59,21.2,northwest,San Diego,Designated Payee Name not Found,1093179665,-117.133011,32.94813
58210,"Miller, Alyssa",1000 S Madera Ave,54,male,29.2,1,no,0,0,Yes,Private,Urban,84.06,37.3,southwest,Fresno,COMMUNITY HOSPITAL   REEDLEY,1902823461,-120.059971,36.72017
33549,"Krause, Abigail",2200 Tydd St,46,female,28.9,2,no,0,1,Yes,Private,Urban,96.13,31.6,southwest,Humboldt,DOOR COMMUNITY HEALTH   OPEN,1669569109,-124.146082,40.80231
2276,"Xiong, Tou","1908 N. Beale Road, Suite E",41,female,33.155,3,no,0,0,No,Private,Rural,92.48,38.2,northeast,Yuba,HEALTH MEDICAL       HARMONY,1124130620,-121.545761,39.12751
20231,"Gomez, Veronica","1206 E 17th St, Ste 101",58,male,28.595,0,no,0,0,No,Private,Urban,92.32,26.3,northwest,Orange,THE PEOPLE INC       SERVE,1770803462,-117.853951,33.75925
47388,"Huynh, Peter","1000 West Carson Street, L4",18,female,38.28,0,no,0,0,No,Private,Urban,60.35,23.6,southeast,Los Angeles,ANGELES COUNTY     LOS,1427070168,-118.294551,33.83154
67866,"Bradley, Charity",475 Bruce St,22,male,19.95,3,no,0,0,Yes,Private,Rural,251.59,28.6,northeast,Siskiyou,Designated Payee Name not Found,1093197790,-122.646481,41.71822
58108,"Farukhi, Mohammed","1000 West Carson Street, L4",44,female,26.41,0,no,0,0,Yes,Private,Rural,87.49,30,northwest,Los Angeles,ANGELES COUNTY     LOS,1427070168,-118.294551,33.83154
33306,"Gamble, Catherine",612 Tranquility Gln,44,male,30.69,2,no,0,0,No,Private,Urban,104.86,38.2,southeast,San Diego,HEALTH COUNCIL        INDIAN,1861449522,-117.059671,33.12533
68765,"Nguyen, Vuong","10141 Westminster Ave, Suite # E",36,male,41.895,3,yes,0,0,No,Self-employed,Rural,67.7,24,northeast,Orange,MEDICAL          WESTMINSTER,1306983812,-117.951721,33.75993
45271,"Phan, Bichvan","200 Jose Figueres Ave, Suite 370",26,female,29.92,2,no,0,1,Yes,Self-employed,Urban,56.6,,southeast,Santa Clara,Designated Payee Name not Found,1093707085,-121.850291,37.36141
23875,"JUAREZ, MARGARET","601 Las Tunas Dr, Suite 101",30,female,30.9,3,no,0,0,No,Private,Urban,86.17,29.5,southwest,Los Angeles,GABRIEL WOMENS     SAN,1356374359,-118.050991,34.10794
34632,"MANJARREZ, DANIEL",702 Wake Ave,41,female,32.2,1,no,0,0,Yes,Govt_job,Rural,85.93,25.1,southwest,Imperial,DANIEL MD         MANJARREZ,1093707978,-115.560061,32.77093
49767,"SHAH, MONA",23763 Valencia Blvd,29,female,32.11,2,no,0,0,Yes,Private,Urban,69.86,24.4,northwest,Los Angeles,VALLEY HEALTH      NORTHEAST,1730180118,-118.55058,34.414676
64169,"Kromhout, Aaron","1941 Johnson Ave, Suite 202",61,male,31.57,0,no,0,0,Yes,Govt_job,Urban,57.82,31.6,southeast,San Luis Obispo,AARON D MD         KROMHOUT,1093717472,-120.650411,35.27761
71937,"Peterson, Robert","1010 Nut Tree Rd, STE 200",36,female,26.2,0,no,0,0,Yes,Private,Rural,56.96,26.7,southwest,Solano,HEALTHCARE GRP      NORTHBAY,1760534713,-121.952751,38.35449
61564,"Kheradpour, Rabin",23763 Valencia Blvd.,25,male,25.74,0,no,0,0,Yes,Private,Rural,94.48,36.9,southeast,Los Angeles,VALLEY HEALTH      NORTHEAST,1730180118,-118.55058,34.414676
68553,"Liu, Hsin-Pei",33255 Ninth Street,56,female,26.6,1,no,0,0,Yes,Self-employed,Urban,230.42,,northwest,Alameda,VASQUEZ HLTH CT     TIBURCIO,1851389696,-122.026411,37.60262
21404,"Raval, Niren","400 N Pepper Ave, Arrowhead Regional Medical Center",18,male,34.43,0,no,0,0,No,children,Rural,77.97,20.8,southeast,San Bernardino,FAMILY MEDICAL     ARROWHEAD,1164696381,-117.350971,34.07316
49781,"Aziz-Zadeh, Nasser","1141 W Redondo Beach Blvd, # 407",19,male,30.59,0,no,1,0,Yes,Govt_job,Urban,117.13,41.9,northwest,Los Angeles,NASSER           AZIZ-ZADEH,1093723371,-118.294861,33.892413
25481,"Thomas, Sean",55585 29 Palms Hwy,39,female,32.8,0,no,0,0,No,Private,Rural,94.39,32.5,southwest,San Bernardino,SEAN R MD INC        THOMAS,1447476312,-116.451598,34.117963
7073,"Lombardo, Joseph",2220 Clark Ave,45,female,28.6,2,no,0,0,Yes,Private,Urban,69.22,34.3,southeast,Los Angeles,Designated Payee Name not Found,1093726457,-118.133331,33.79747
61491,"Garcia, Maria","7075 N Maple Ave, #102",51,female,18.05,0,no,0,0,Yes,Private,Rural,84.93,34.7,northwest,Fresno,VASANTH M MD     VISHWANATH,1811199672,-119.746431,36.83851
25847,"Jesse, David",3000 E Birch St Ste 110,64,female,39.33,0,no,0,0,Yes,Private,Rural,95.89,27.9,northeast,Orange,Designated Payee Name not Found,1497759005,-117.857051,33.91756
71761,"Kotha, Purushotham","8860 Center Dr, #400",19,female,32.11,0,no,0,0,No,Private,Urban,102.63,25.1,northwest,San Diego,PURUSHOTHAM MD        KOTHA,1093730814,-117.006524,32.782307
58606,"Norvell, Cindy","50 Branscomb Rd, P.O. BOX 870",48,female,32.23,1,no,1,0,Yes,Govt_job,Rural,217,39.4,southeast,Mendocino,VALLEY HEALTH CTR      LONG,1366467375,-123.484221,39.68813
68786,"Savelli, Ilse","355 K St, Suite A",60,female,24.035,0,no,0,0,Yes,Govt_job,Rural,79.5,25.2,northwest,San Diego,Designated Payee Name not Found,1093733925,-117.075551,32.62373
37325,"Rosenbaum, Daniel",1809 National Ave.,27,female,36.08,0,yes,0,0,Yes,Self-employed,Urban,148.45,26,southeast,San Diego,HEALTH CTRS OF SD     FAMILY,1447281936,-117.146861,32.70123
27430,"ali, zulfiqar","1900 Mowry Ave, suite 105",46,male,22.3,0,no,0,0,Yes,Private,Urban,79.43,25,southwest,Alameda,ZULFIQAR MD      ALI,1093740227,-121.979471,37.55839
61231,"MacAlpin, Rex",14445 Olive View Drive,28,female,28.88,1,no,0,0,No,children,Urban,107.03,19.2,northeast,Los Angeles,ANGELES CO     LOS,1316969934,-118.445531,34.32593
65733,"McBeth, Jessica",751 S Bascom Ave,59,male,26.4,0,no,1,1,Yes,Private,Urban,70.04,53.7,southeast,Santa Clara,CLARA MED CTR       SANTA,1063406551,-121.933911,37.31439
48960,"RYAN, ROBERT",888 S Hill Rd.,35,male,27.74,2,yes,0,0,Yes,Self-employed,Urban,84.61,23.5,northeast,Ventura,DEL CAMINO REAL     CLINICAS,1396961884,-119.206131,34.26854
40193,"Hsieh, Charlotte","747 52nd St, Pediatric Infectious Diseases",63,female,31.8,0,no,0,0,Yes,Private,Rural,150.51,20.5,southwest,Alameda,HOSPITAL MEDICAL   CHILDRENS,1003961251,-122.267631,37.83706
43723,"Camacho, Miguel","150 Tejas Place, PO Box 430",40,male,41.23,1,no,0,0,Yes,Private,Urban,171.87,31.2,northeast,San Luis Obispo,HEALTH CENTERS     COMMUNITY,1841217866,-120.498731,35.02699
35411,"Jain, Vivek","1001 Potrero Ave., Room 2A5",20,male,33,1,no,0,0,Yes,Govt_job,Rural,111.77,48.7,southwest,San Francisco,FRANCISCO GEN HOSP     SAN,1083648810,-122.405371,37.75529
21868,"Vanata, Cynthia","1144 Norman Dr, #104",40,male,30.875,4,no,0,0,Yes,Govt_job,Urban,98.94,24.1,northwest,San Joaquin,CYNTHIA M DO         VANATA,1093748006,-121.199523,37.794339
15830,"ANGELES-RIPARIP, MELODY","4343 Yaqui Pass Road, Suite 220",24,male,28.5,2,no,0,0,Yes,Private,Urban,110.16,21.7,northwest,San Diego,COMMUNITY HEALTH     BORREGO,1134144165,-116.329051,33.19398
22011,"Naudin, Veronica","3860 Calle Fortunada, Suite 200",34,female,26.73,1,no,0,0,Yes,Self-employed,Rural,71.91,29.1,southeast,San Diego,PRIMARY CARE       CHILDRENS,1184788291,-117.122761,32.81208
42952,"Schiltz, Craig",1380 Howard Street,45,female,30.9,2,no,0,0,Yes,Private,Rural,168.4,,southwest,San Francisco,AND COUNTY OF SAN      CITY,1417099789,-122.414411,37.77446
13210,"Abouzeid, Christiane",1200 North State Street,41,female,37.1,2,no,0,0,No,Private,Urban,120.92,30.9,southwest,Los Angeles,USC MEDICAL CENTER     LAC,1396756938,-118.208281,34.05963
38645,"Taheri, Nima",1200 North State Street,53,female,26.6,0,no,1,0,Yes,Private,Rural,123.41,37,northwest,Los Angeles,USC MEDICAL CENTER     LAC,1396756938,-118.208281,34.05963
65174,"Ananthakrishna, Radhika","6555 Coyle Ave, Suite 310",27,male,23.1,0,no,0,0,No,children,Rural,123.34,19.7,southeast,Sacramento,SACRAMENTO         GREATER,1144385915,-121.311791,38.66856
66314,"Hoang, Brandon",2265 W LINCOLN AVE,26,female,29.92,1,no,0,0,Yes,Private,Rural,121.03,31.2,southeast,Orange,TRUC LE DDS INC       CHUCK,1225132483,-117.961981,33.833
38083,"Pferdehirt, Beth",240 Shotwell St,24,female,23.21,0,no,0,0,Yes,Self-employed,Urban,133.78,23.1,southeast,San Francisco,AREA HLTH ASSOC      MISSION,1457427411,-122.416581,37.76472
13070,"Ugalde, Anne-Lorrane","1000 W. Carson St., L4",34,female,33.7,1,no,0,0,No,Govt_job,Urban,74.12,25,southwest,Los Angeles,ANGELES COUNTY     LOS,1427070168,-118.294551,33.83154
39348,"Saipher, Marshall",1208 Paseo Verde Drive,53,female,33.25,0,no,0,0,Yes,Govt_job,Rural,77.87,26.9,northeast,Merced,UNLIMITED          HORISONS,1184674582,-120.491101,37.32504
7075,"GUIJON, OLGA",1057 Pine Ave,32,male,30.8,3,no,0,0,No,Private,Rural,91.39,22.3,southwest,Los Angeles,Designated Payee Name not Found,1083809537,-118.192761,33.78011
7840,"Lo, Christina",747 52nd St,19,male,34.8,0,yes,0,0,Yes,Govt_job,Urban,89.27,,southwest,Alameda,HOSPITAL MEDICAL   CHILDRENS,1003961251,-122.267631,37.83706
22798,"Chung, Peter","UCI Medical Center, 101 The City Drive South",42,male,24.64,0,yes,0,0,Yes,Private,Rural,107.93,25.2,southeast,Orange,IRVINE UNI PHY and SURG    UC,1407058787,-117.876761,33.784787
43842,"Carr, Mianda","2400 E 8th St, Suite A",55,male,33.88,3,no,0,0,Yes,Private,Rural,120.75,43.7,southeast,San Diego,DE SALUD DE LA        CENTRO,1598907487,-117.081951,32.68254
15430,"mai, huy",1661 Tully Rd,28,male,38.06,0,no,0,0,No,Private,Urban,110.14,22.7,southeast,Santa Clara,Designated Payee Name not Found,1275662074,-121.826905,37.321809
57754,"ANSELMO, DEAN","3701 Wilshire Boulevard, Suite 600",58,female,41.91,0,no,0,0,Yes,Private,Rural,68.43,34.8,southeast,Los Angeles,HOSPITAL LOS       CHILDRENS,1265530653,-118.306693,34.061734
4357,"RANA, SHAZIA","530 South Main St., Suite D",41,female,31.635,1,no,0,0,Yes,Govt_job,Urban,91.28,,northeast,Orange,Dental Western,1477627156,-117.867453,33.779297
46428,"Lin, Aaron","6430 Sunset Blvd., Suite 600",47,male,25.46,2,no,0,0,Yes,Self-employed,Urban,206.82,31,northeast,Los Angeles,CHILDRENS MED     UNIVERSITY,1265530653,-118.329806,34.097958
51078,"WONG, TIN-CHEU",420 N Garfield Ave Ste 208,42,female,36.195,1,no,0,0,No,Private,Urban,56.8,20.5,northwest,Los Angeles,TIN-CHEU MD       WONG,1083825624,-118.122281,34.06701
46067,"Irawan, Ibrahim",505 E Arrow Hwy,59,female,27.83,3,no,0,0,No,Self-employed,Urban,108.25,32,southeast,Los Angeles,Designated Payee Name not Found,1083827976,-117.854721,34.10705
49814,"Milanchi, Siamak",16300 Sand Canyon Ave Ste 604,19,female,17.8,0,no,0,0,Yes,Private,Rural,107.58,42.2,southwest,Orange,Designated Payee Name not Found,1083829956,-117.773421,33.66042
64209,"Rhee, Connie",101 The City Drive South,59,male,27.5,1,no,0,0,Yes,Self-employed,Rural,221.51,28,southwest,Orange,IRVINE UNI PHY and SURG    UC,1407058787,-117.888661,33.78874
50389,"Oh, Frederick",211 Eastmoor Ave.,39,male,24.51,2,no,0,0,Yes,Private,Rural,77.09,23.6,northwest,San Mateo,EAST MEDICAL SVS       NORTH,1518911304,-122.478541,37.68505
56153,"Villalon, Rachel","1860 Pennsylvania Ave, Ste 300",40,female,22.22,2,yes,0,0,No,Private,Urban,115.92,22,southeast,Solano,HEALTHCARE GRP      NORTHBAY,1760534713,-122.049311,38.26197
4052,"Guiao-Martinez, Angela",8405 BEVERLY BLVD,18,female,26.73,0,no,0,0,Yes,Private,Rural,75.62,,southeast,Los Angeles,LOS ANGELES FREE CLINIC  THE,1194893248,-118.373481,34.07632
56582,"Romero, Lorraine",1114 6th St.,31,male,38.39,2,no,0,0,Yes,Private,Rural,81.58,29.2,southeast,Stanislaus,VALLEY HEALTH CTR     GOLDEN,1487867503,-121.005521,37.63926
27261,"Doan, Chinh",2720 Low Ct,19,male,29.07,0,yes,0,0,Yes,Private,Rural,93.93,36.3,northwest,Solano,COUNTY HEALTH PROJECT  NORTH,1245246917,-122.085851,38.23677
66015,"Marin, Andres",1601 Fruitvale Ave.,44,male,38.06,1,no,0,0,Yes,Self-employed,Rural,69.15,27.3,southeast,Alameda,CLINICA DE LA RAZA    LA,1144336181,-122.22464,37.780079
46910,"Ehrhart, Lauren","1200 North State Street, L4",23,female,36.67,2,yes,0,0,Yes,Govt_job,Urban,57.21,43.9,northeast,Los Angeles,USC MEDICAL CENTER     LAC,1396756938,-118.208281,34.05963
65455,"Chang, Jolie","1001 Potrero Ave., Room 2A5",33,female,22.135,1,no,0,0,Yes,Govt_job,Urban,86.42,26.4,northeast,San Francisco,FRANCISCO GEN HOSP     SAN,1083648810,-122.405371,37.75529
44343,"Sachdev, Darpun","1001 Potrero Ave., Room 2A5",55,female,26.8,1,no,0,0,Yes,Private,Rural,197.89,39.5,southwest,San Francisco,FRANCISCO GEN HOSP     SAN,1083648810,-122.405371,37.75529
30500,"Felix-Trunnelle, Elizabeth",249 E Highland Ave,40,male,35.3,3,no,0,1,Yes,Private,Urban,97.72,30.4,southwest,San Bernardino,Designated Payee Name not Found,1871553347,-117.280811,34.13554
67064,"Flores, Maria",155 5th Street,63,female,27.74,0,yes,0,0,No,Private,Urban,65.22,25.7,northeast,San Francisco,University of the Pacific Arthur A. Dugoni School,1588050942,-122.405021,37.78231
45386,"Germain, Beatrice","808 W 58th St, St John's Well Child & Family Clinic",54,male,30.02,0,no,0,0,No,children,Urban,74.75,20.3,northwest,Los Angeles,JOHNS WELL CHILD    ST,1013057371,-118.285686,34.001725
45407,"kalai, kambiz",6832 DeSoto Ave,60,female,38.06,0,no,0,0,No,Private,Rural,62.05,33.2,southeast,Los Angeles,Edalat Pajouh S. Kalai Dental Corp,1205908795,-118.588408,34.194702
57951,"ESPINOSA, LEONARD",1938 Pacific Ave,24,male,35.86,0,no,0,0,Yes,Private,Rural,198.33,26.1,southeast,Los Angeles,"Leonard Espinosa, DMD, Inc.",1023143914,-118.193471,33.79254
57408,"Wheeler, Elenita",20800 Sherman Way,19,male,20.9,1,no,0,0,Yes,Self-employed,Rural,94.99,50.5,southwest,Los Angeles,PROYECTO DEL BARRIO    EL,1083624423,-118.586491,34.20052
25654,"Barayan, Sahar",9300 Valley Children's Place,29,male,28.975,1,no,0,0,Yes,Private,Urban,75.27,23.8,northeast,Madera,MEDICAL GROUP      SPECIALTY,1013968296,-119.800101,36.88435
58670,"Debora, Daisy","330 N. garfield avenue, #2",18,male,17.29,2,yes,0,0,Yes,Private,Rural,182.52,25.9,northeast,Los Angeles,Designated Payee Name not Found,1114120516,-118.128991,34.09882
30431,"AUSTIN, JEREMY",31292 Alpine Meadows Road,63,female,32.2,2,yes,0,0,Yes,Private,Urban,110.57,43.7,southwest,Shasta,MEDICAL CTR      SHINGLETOWN,1750387072,-121.885481,40.49166
6689,"Pulverman, Ralph",1735 Mission Street,54,male,34.21,2,yes,0,0,No,children,Urban,68.36,20.6,southeast,San Francisco,ASHBURY MED CLIN      HAIGHT,1760427843,-122.419999,37.769258
48622,"Zaghi, Pedram","3551 Peck Rd, unit 101",27,male,30.3,3,no,0,0,No,Private,Rural,57.24,23.1,southwest,Los Angeles,"DDS, INC Zaghi",1306242631,-118.025631,34.07202
46417,"HERNANDEZ, MARIA","450 E 8th St, Ste E",50,male,31.825,0,yes,0,1,Yes,Private,Urban,180.47,29,northeast,San Diego,Designated Payee Name not Found,1962685974,-117.101991,32.67695
45451,"Gonzalez, Marisa","655 Euclid Ave, Suite 409",55,female,25.365,3,no,0,0,Yes,Private,Rural,149.51,27.9,northeast,San Diego,Designated Payee Name not Found,1083870463,-117.082706,32.683689
37793,"Gogia, Ravinder","1001 Potrero Ave., Room 2A5",56,male,33.63,0,yes,0,0,No,children,Rural,95.06,26.3,northwest,San Francisco,FRANCISCO GEN HOSP     SAN,1083648810,-122.405371,37.75529
1733,"Carlson, Bronwyn",11234 ANDERSON ST,38,female,40.15,0,no,0,0,Yes,Govt_job,Rural,84.98,21.7,southeast,San Bernardino,PHYSICIANS AND       FACULTY,1477503407,-117.263601,34.04968
50976,"Henkin, Jennifer","LLU School of Dentistry PBO, 11092 Anderson St",51,male,24.415,4,no,0,0,Yes,Private,Rural,88.38,33.3,northwest,San Bernardino,LINDA UNIV SCHOOL      LOMA,1639270846,-117.261366,34.051071
44545,"Vargas, Daniel",4425 S Central Ave,19,male,31.92,0,yes,0,0,Yes,Private,Rural,120.88,42.7,northwest,Los Angeles,CENTRAL FAMILY       SOUTH,1396891909,-118.256861,34.00311
25542,"chaiwongkarjohn, suttirak",45104 10th St W,58,female,25.2,0,no,0,0,Yes,Self-employed,Rural,89.19,28.7,southwest,Los Angeles,VALLEY COMM CLINIC  ANTELOPE,1346563673,-118.147371,34.70292
45199,"Young, Pari",3291 Loma Vista Road,20,female,26.84,1,yes,0,0,Yes,Self-employed,Urban,129.42,43.7,southeast,Ventura,OF VENTURA        COUNTY,1629167457,-119.251951,34.27648
55826,"Llaguno-Jingco, Katherine","530 South Main St., Unit #8",52,male,24.32,3,yes,0,0,No,Private,Rural,60.51,24.5,northeast,Orange,Dental Western,1477627156,-117.867453,33.779297
26527,"Wilson Hannay, Sarah",505 Parnassus Ave.,19,male,36.955,0,yes,0,0,Yes,Private,Urban,96.08,44.2,northwest,San Francisco,REGENTS OF UNIV CA     THE,1689772592,-122.457745,37.763498
52254,"Kase, Michael",1830 Flower St,53,female,38.06,3,no,0,0,No,Private,Rural,63.75,30,southeast,Kern,Designated Payee Name not Found,1083885164,-118.971161,35.38243
61358,"Perez, Norma",5427 Whittier Blvd,46,male,42.35,3,yes,0,0,Yes,Private,Rural,72.01,21.1,southeast,Los Angeles,MEDICAL GROUP-       ALTAMED,1396959060,-118.153491,34.02
64704,"Ortega, Olivia",1454 E 2nd St,40,male,19.8,1,yes,0,0,Yes,Self-employed,Urban,81.64,39.8,southeast,San Bernardino,NORTON COMMUNITY     SAC,1013935915,-117.31693,34.102705
72179,"Fan, Amelia",5059 York Blvd,59,female,32.395,3,no,0,0,Yes,Self-employed,Rural,116.1,26.9,northeast,Los Angeles,COMMUNITY      COMPREHENSIVE,1245210749,-118.204881,34.12135
67601,"Tello, Jorge",811 S ALVARADO ST,45,male,30.2,1,no,0,0,Yes,Private,Urban,153,25.1,southwest,Los Angeles,Designated Payee Name not Found,1083892558,-118.278132,34.054439
65829,"Kong, Allen","UC IRVINE MEDICAL CENTER, 101 THE CITY DRIVE SOUTH",49,male,25.84,1,no,0,0,Yes,Private,Rural,113.51,36.4,northeast,Orange,IRVINE UNI PHY and SURG    UC,1407058787,-117.876761,33.784787
25603,"Ntim, Gifty-Maria",2151 E. Palmdale Blvd.,18,male,29.37,1,no,0,0,Yes,Self-employed,Rural,100.16,32.4,southeast,Los Angeles,VALLEY COMM CLINIC  ANTELOPE,1346563673,-118.089911,34.58045
55928,"Williams, Jason",751 S Bascom Ave,50,male,34.2,2,yes,0,0,Yes,Self-employed,Urban,79.84,37.6,southwest,Santa Clara,CLARA MED CTR       SANTA,1063406551,-121.933911,37.31439
51358,"Nieves, Delma",455 S Main St,41,male,37.05,2,no,0,0,Yes,Govt_job,Urban,55.25,29.8,northwest,Orange,HOSPITAL OF        CHILDRENS,1811080526,-117.865551,33.78152
61513,"Pearson, Lisa",1179 North McDowell Blvd.,50,male,27.455,1,no,0,0,Yes,Private,Urban,224.98,34.1,northeast,Sonoma,"HEALTH CTR, INC     PETALUMA",1588656268,-122.660401,38.26843
4945,"Campbell, Rina",1601 Fruitvale Ave,25,male,27.55,0,no,0,1,Yes,Private,Urban,92.17,27.4,northwest,Alameda,CLINICA DE LA RAZA    LA,1144336181,-122.22464,37.780079
17889,"Bedayat, Babak",135 Carmen Lane,47,female,26.6,2,no,0,0,No,Private,Urban,102.29,41.1,northeast,Santa Barbara,SPINE AND SPORTS      LAGS,1447244256,-120.437421,34.92513
54738,"Joo, Yoonmee",510 17th St,19,male,20.615,2,no,0,0,Yes,Private,Urban,71.32,30.4,northwest,Alameda,FOR ELDERS        CENTER,1245371061,-122.270841,37.80733
23515,"Jew, Jerry",1520 Stockton Street,22,female,24.3,0,no,0,0,No,children,Urban,114.77,23.4,southwest,San Francisco,EAST MEDICAL SVS       NORTH,1518911304,-122.408731,37.79994
34112,"Rana, Arvind",9317 Whittier Blvd,59,male,31.79,2,no,0,0,Yes,Govt_job,Urban,69.52,23.2,southeast,Los Angeles,Designated Payee Name not Found,1083899306,-118.078321,33.99957
3897,"Wang, Linda",330 E Live Oak Ave,51,female,21.56,1,no,0,0,No,children,Urban,85.59,15.8,southeast,Los Angeles,CNTY DEPT MENTAL HEALTH   LA,1699703827,-118.021931,34.10792
1117,"Lam, Steven","795 E 2nd St, Suite 5",40,female,28.12,1,yes,0,0,Yes,Self-employed,Urban,84.86,33.9,northeast,Los Angeles,UNIVERSITY OF        WESTERN,1679515217,-117.741587,34.058087
120,"Flores, Sarah",250 Locust St,54,male,40.565,3,yes,1,1,Yes,Private,Urban,118.34,,northeast,Santa Cruz,CRUZ COMMUNITY HEALTH  SANTA,1902923329,-122.028841,36.97506
35789,"Elangovan, Initha",2500 Alhambra Ave,30,male,27.645,1,no,0,0,Yes,Private,Rural,80.91,23.5,northeast,Contra Costa,COSTA CO HLTH SVS     CONTRA,1902975394,-122.132641,38.00674
20547,"Manske, Jessica","345 F ST, STE 260",55,female,32.395,1,no,0,0,No,Private,Urban,69.01,24.9,northeast,San Diego,NAZLI KERI.DDS A PROFESSIONAL CORPORATION,1285834796,-117.081871,32.64133
43870,"Yang, Magnus",2020 J St,52,female,31.2,0,no,0,0,No,children,Urban,120.61,20,southwest,Sacramento,NATIVE            SACRAMENTO,1588756530,-121.479361,38.5762
62440,"Hennick, Jennifer",9508 Stockdale Hwy #150,46,male,26.62,1,no,0,0,Yes,Private,Rural,85.66,35.6,southeast,Kern,PEDIATRIC CLIN     RIVERWALK,1417910886,-119.108481,35.35526
57984,"MAHESHWARI, ANAMIKA","1111 Columbus St, Suite 1200",46,female,48.07,2,no,0,0,No,Private,Urban,115.09,27.7,northeast,Kern,FAMILY HEALTH      OMNI,1366463085,-118.982481,35.39679
11808,"Nelson, Ariana","UC IRVINE MEDICAL CENTER, 101 THE CITY DRIVE SOUTH",63,female,26.22,0,no,0,0,No,children,Rural,95.68,30.5,northwest,Orange,IRVINE UNI PHY and SURG    UC,1407058787,-117.876761,33.784787
27581,"Yang, Yvonne","16360 Roscoe Blvd, Suite 200",59,female,36.765,1,yes,0,0,Yes,Private,Urban,97.63,24.4,northeast,Los Angeles,San Fernando Valley Community Mental Health Center,1164427316,-118.490941,34.22052
18175,"olson, nancy",455 East Columbia Ave.,52,male,26.4,3,no,0,0,Yes,Self-employed,Urban,121.16,26.7,southeast,Los Angeles,Designated Payee Name not Found,1083933451,-118.185055,33.769897
36103,"Afshar-Ebrahimi, Manijeh","530 South Main St., #3",28,female,33.4,0,no,0,0,No,Private,Urban,90.77,31.1,southwest,Orange,Dental Western,1477627156,-117.867453,33.779297
39380,"nunez gallegos, jose luis","1141 Pear Tree Ln, Ste 100",29,male,29.64,1,no,0,0,No,children,Urban,104.13,22.9,northeast,Napa,HEALTH CLINIC OLE  COMMUNITY,1700976503,-122.292101,38.32092
40450,"Chung, Kathleen","1001 Potrero Ave, Room 2A5",25,male,45.54,2,yes,0,0,Yes,Private,Rural,70.25,40.7,southeast,San Francisco,FRANCISCO HEALTH     SAN,1588606206,-122.405371,37.75529
22797,"Bhat, Supriya",1200 North State Street,22,female,28.82,0,no,0,0,Yes,Govt_job,Urban,108.74,24,southeast,Los Angeles,USC MEDICAL CENTER     LAC,1396756938,-118.208281,34.05963
44577,"Garcia, Javier",944 O St,25,male,26.8,3,no,0,0,Yes,Private,Rural,169.04,25.5,southwest,Fresno,HEALTH TEAM INC       VALLEY,1558638601,-120.458401,36.86029
49988,"Chhibar, Ruchika",1000 Sutter St,18,male,22.99,0,no,0,0,Yes,Govt_job,Urban,79.09,24.1,northeast,Sutter,HEALTH       AMPLA,1811204555,-121.613001,39.14534
32685,"Mackiney, Sandra","Visalia Health Care Center, 2611 N Dinuba Blvd",19,male,27.7,0,yes,0,0,Yes,Private,Urban,229.71,36.5,southwest,Tulare,HEALTH CARE CTR      VISALIA,1457385163,-119.323787,36.338456
2564,"NANDAVIKAR, DHANASHRI",530 South Main St.,47,male,25.41,1,yes,0,0,No,Private,Urban,116.03,26.2,southeast,Orange,Dental Western,1477627156,-117.867453,33.779297
37188,"Esparza, Lynn",747 52nd St,31,male,34.39,3,yes,0,0,Yes,Self-employed,Rural,117.13,43.2,northwest,Alameda,HOSP MED CTR       CHILDRENS,1003961251,-122.267631,37.83706
66881,"Kaur, Sukhpreet",468 N Vermont Ave,48,female,28.88,1,no,0,0,Yes,Self-employed,Rural,121.33,29.1,northwest,Tulare,"NARAYAN, MD        GUJARATHI",1427123496,-119.388901,36.54884
7967,"Penhallurick, Tiffany","250 SOUTH G STREET, SAC HEALTH SYSTEM",36,male,27.55,3,no,0,0,No,children,Urban,110.05,18.7,northeast,San Bernardino,HEALTH SYSTEM     SAC,1801270137,-117.298694,34.09684
38940,"Hill, Spencer",637 Merced St,53,female,22.61,3,yes,1,0,Yes,Private,Rural,65.26,31.7,northeast,Stanislaus,Designated Payee Name not Found,1083954275,-121.016381,37.31513
32913,"Lance, Simone",2051 John Jones Rd,56,female,37.51,2,no,0,0,Yes,Private,Rural,93.84,34.2,southeast,Yolo,HEALTH CTRS      COMMUNICARE,1558366823,-121.769831,38.5639
9168,"Fong, Todd",751 S Bascom Ave,28,female,33,2,no,0,0,Yes,Private,Rural,107.52,38.9,southeast,Santa Clara,CLARA MED CTR       SANTA,1063406551,-121.933911,37.31439
27896,"Proctor, Courtney",601 W 19th St,57,female,38,2,no,0,0,No,children,Rural,89.08,12.7,southwest,Orange,PARENTHOOD/         PLANNED,1609845171,-117.923571,33.64311
7610,"Haghollahi, Taravat","Family Health Centers of San Diego, Inc., 1809 National Ave.",29,male,33.345,2,no,0,0,No,children,Rural,77.72,29.5,northwest,San Diego,HEALTH CTRS OF SD     FAMILY,1447281936,-117.113408,32.694953
1752,"Fernandez, James",1200 North State Street,28,female,27.5,2,no,0,0,Yes,Private,Rural,67.34,,southwest,Los Angeles,USC MEDICAL CENTER     LAC,1396756938,-118.208281,34.05963
11078,"Xu, Lynn","600 N Garfield Ave, 105",30,female,33.33,1,no,0,0,Yes,Private,Urban,228.95,35.3,southeast,Los Angeles,HEALTH CENTER       GARFIELD,1760480610,-118.122301,34.06822
42067,"Hathcoat, Brian",2500 Alhambra Ave,58,male,34.865,0,no,0,0,Yes,Private,Rural,85.52,23.8,northeast,Contra Costa,Brian James Hathcoat,1083962492,-122.132641,38.00674
8205,"Kalyani, Ashini",701 W. Esplanade Ave,41,female,33.06,2,no,0,0,Yes,Self-employed,Urban,88.27,30.7,northwest,Riverside,Ashini Shah,1083966279,-116.972561,33.77325
62739,"Hernandez, Javier",1430 Truxtun Ave,50,male,26.6,0,no,0,0,Yes,Private,Urban,63.78,26.9,southwest,Kern,SIERRA VISTA         CLINICA,1659373017,-119.018181,35.37351
67643,"Larimore-Arenas, Darcie",1179 N McDowell Blvd,19,female,24.7,0,no,0,0,Yes,Private,Rural,109.37,37.5,southwest,Sonoma,"HEALTH CTR, INC     PETALUMA",1588656268,-122.660401,38.26843
57519,"Carbonell, Erma",760 Renz Ln,43,male,35.97,3,yes,0,1,Yes,Self-employed,Rural,56.64,30.3,southeast,Santa Clara,PARENTHOOD         PLANNED,1053364109,-121.555681,37.00411
46049,"Lee, Samuel",4605 Lankershim Blvd Ste 617,49,male,35.86,0,no,0,0,Yes,Self-employed,Rural,101.1,18.2,southeast,Los Angeles,CONSULTANTS OF     INPATIENT,1831134253,-118.368501,34.15385
64480,"Martin, Vanessa",1200 North State Street,27,female,31.4,0,yes,0,0,Yes,Govt_job,Urban,70.61,22.7,southwest,Los Angeles,USC MEDICAL CENTER     LAC,1396756938,-118.208281,34.05963
57704,"Lee, Rebecca",14445 Olive View Drive,52,male,33.25,0,no,0,0,Yes,Private,Rural,113.15,23.5,northeast,Los Angeles,ANGELES CO     LOS,1316969934,-118.445531,34.32593
62988,"Yang, Sane Thai",2767 Olive Hwy,50,male,32.205,0,no,0,0,Yes,Self-employed,Rural,216.05,32.3,northwest,Butte,PROFESSIONAL       OROHEALTH,1013933167,-121.541211,39.5059
21330,"Mangat, Navjot",500 W Hospital Rd,54,male,32.775,0,no,0,0,Yes,Private,Rural,85.21,29.3,northeast,San Joaquin,JOAQUIN GENERAL HOSP     SAN,1952476525,-121.282211,37.88655
49580,"Lee, Terrence",1200 North State Street,44,female,27.645,0,no,0,0,Yes,Private,Urban,86.72,28.6,northwest,Los Angeles,USC MEDICAL CENTER     LAC,1396756938,-118.208281,34.05963
44223,"Rogers, Lisa",1200 North State Street,32,male,37.335,1,no,0,0,Yes,Govt_job,Urban,79.29,24.1,northeast,Los Angeles,USC MEDICAL CENTER     LAC,1396756938,-118.208281,34.05963
71383,"Choi, Suzy","7275 E Southgate Dr, 204",34,male,25.27,1,no,0,0,No,children,Urban,115.27,20.1,northwest,Sacramento,AND LIFE        HEALTH,1740336734,-121.436541,38.49354
34305,"Nadafi, Laura","200 S. Wells Road, Suite 225",26,female,29.64,4,no,0,0,Yes,Self-employed,Urban,86.84,24.5,northeast,Ventura,DEL CAMINO REAL     CLINICAS,1396961884,-119.159071,34.29357
46737,"Song, Fine",2790 Atlantic Ave,34,male,30.8,0,yes,0,0,Yes,Private,Urban,65.9,27.3,southwest,Los Angeles,"CLINIC, THE       CHILDREN'S",1639233935,-118.184731,33.80774
21692,"OWEN, MICHAEL",1809 NATIONAL AVE,57,male,40.945,0,no,0,1,Yes,Govt_job,Urban,89.09,,northeast,San Diego,HEALTH CTRS OF SD     FAMILY,1447281936,-117.146861,32.70123
58457,"Woods, Marisa",1601 Fruitvale Ave.,29,male,27.2,0,no,0,0,Yes,Self-employed,Rural,115.21,26.5,southwest,Alameda,CLINICA DE LA RAZA    LA,1144336181,-122.22464,37.780079
55793,"Leimbach, Leonard",2880 Story Rd,40,male,34.105,1,no,0,0,No,Private,Rural,61.8,20.5,northeast,Santa Clara,JOSE FOOTHILL FAMILY     SAN,1063658029,-121.822321,37.35337
54675,"Basha, Mariana",1183 E Anaheim St,27,female,23.21,1,no,0,0,No,Private,Rural,95.1,24,southeast,Los Angeles,Designated Payee Name not Found,1437587607,-118.176821,33.782625
811,"VALENCIA, SORAIDA",3291 Loma Vista Rd,45,male,36.48,2,yes,0,0,Yes,Private,Urban,96.57,28.8,northwest,Ventura,OF VENTURA        COUNTY,1538300488,-119.251951,34.27648
24677,"Lomeli, Adriana",840 Delbon Avenue,64,female,33.8,1,yes,0,0,Yes,Private,Urban,252.11,33.3,southwest,Stanislaus,"ADRIANA E PA-C, NP-C LOMELI",1073891016,-120.838461,37.5102
24103,"Miller, Caitlin",2051 John Jones Rd,52,male,36.7,0,no,0,0,Yes,Private,Rural,99.89,30,southwest,Yolo,HEALTH CTRS      COMMUNICARE,1710087515,-121.769831,38.5639
53850,"nidgundi, nimisha",3030 Alum Rock Ave,61,female,36.385,1,yes,1,1,Yes,Self-employed,Rural,115.12,31.6,northeast,Santa Clara,FAMILY HEALTH        GARDNER,1558491043,-121.828771,37.36445
23545,"Jones, Tiffanny",1200 North State Street,52,male,27.36,0,yes,0,0,Yes,Private,Rural,237.89,36.7,northwest,Los Angeles,USC MEDICAL CENTER     LAC,1396756938,-118.208281,34.05963
42719,"Trinidad, Ruth",959 Myrtle Ave,61,female,31.16,0,no,1,0,Yes,Private,Rural,121.23,37.3,northwest,Humboldt,COMM HEALTH CTR       EUREKA,1851486989,-124.149354,40.800293
50245,"Wendel, Mara",220 Euclid Ave,56,female,28.785,0,no,1,0,No,Private,Urban,167.75,54.5,northeast,San Diego,PARENTHOOD OF THE    PLANNED,1689609679,-117.085721,32.70635
1281,"Farshidpanah, Siavash","11234 ANDERSON ST, MC-6422",43,female,35.72,2,no,0,0,Yes,Private,Urban,240.9,31.5,northeast,San Bernardino,PHYS and SURGEONS      FACULTY,1366492399,-117.263601,34.04968
43477,"Chang, Tzu-Fei",530 south main street,64,male,34.5,0,no,0,0,Yes,Private,Urban,201.64,22.9,southwest,Orange,DENTAL SERVICES      WESTERN,1477627156,-117.867453,33.779297
70531,"Navarro, Alejandra","1000 West Carson Street, L4",60,male,25.74,0,no,0,0,Yes,Private,Rural,99.35,22.7,southeast,Los Angeles,ANGELES COUNTY     LOS,1427070168,-118.294551,33.83154
22411,"Dean, Susan",2435 marshall ave,62,male,27.55,1,no,0,0,No,Private,Rural,96.3,29.5,northwest,Imperial,Designated Payee Name not Found,1093913881,-115.569156,32.831059
60913,"Turner, Nicole",1179 North McDowell Blvd.,50,male,32.3,1,yes,0,0,Yes,Private,Urban,209.35,55.6,northeast,Sonoma,"HEALTH CTR, INC     PETALUMA",1588656268,-122.660401,38.26843
26589,"Pang, Seokjoon",530 south main street,46,female,27.72,1,no,0,0,No,children,Urban,104.53,21.4,southeast,Orange,DENTAL SERVICES      WESTERN,1477627156,-117.867453,33.779297
40619,"Le, Mailinh",455 S. Main St.,24,female,27.6,0,no,0,0,No,children,Rural,126.86,20.1,southwest,Orange,ORANGE CLINIC      CHOC,1427121375,-117.865551,33.78152
24853,"Slaughter, Terry W. Slaughter","901 Sunset Dr, Ste 5",62,male,30.02,0,no,0,0,No,children,Rural,100.24,18.6,northwest,San Benito,Designated Payee Name not Found,1093915530,-121.386736,36.835097
68152,"Shteyman, Kira",6801 Coldwater Cayon Ave,60,female,27.55,0,no,0,0,Yes,Private,Rural,74.42,30.6,northeast,Los Angeles,COMMUNITY HEALTHCARE  VALLEY,1588740989,-118.413825,34.194221
23367,"Chang, YuFang","1202 Morena Blvd., Suite 300",63,male,36.765,0,no,0,0,Yes,Private,Urban,84.28,23.6,northeast,San Diego,RESEARCH           COMMUNITY,1952328700,-117.202191,32.77035
29938,"cisneros-rivas, carol",1200 N State St,49,female,41.47,4,no,0,0,Yes,Govt_job,Urban,81.59,37.9,southeast,Los Angeles,USC MEDICAL CENTER     LAC,1396756938,-118.208281,34.05963
56780,"Dragoman, Ashley",751 S BASCOM AVENUE,34,female,29.26,3,no,0,0,No,Self-employed,Urban,87.23,25,southeast,Santa Clara,CLARA MED CTR       SANTA,1063406551,-121.933911,37.31439
24124,"Golian, Hormoz",20968 Ventura Blvd,33,male,35.75,2,no,1,0,Yes,Private,Rural,219.18,31.1,southeast,Los Angeles,Designated Payee Name not Found,1689044521,-118.590581,34.16627
20766,"Garcia-Pacheco, Ralph",1700 Mount Vernon Ave,46,male,33.345,1,no,0,0,No,Private,Rural,93.7,25.1,northeast,Kern,COUNTY HOSPITAL      KERN,1427176569,-118.969811,35.38221
22690,"Young-Tripp, Sawar",1600 Weeot Way,36,female,29.92,1,no,0,0,Yes,Govt_job,Urban,198.47,30.9,southeast,Humboldt,INDIAN HEALTH SVS     UNITED,1497751572,-124.087015,40.897443
16388,"Dinh, Hung",3402 E Chapman Ave,19,male,27.835,0,no,0,0,Yes,Private,Rural,98.11,30,northwest,Orange,Designated Payee Name not Found,1093925521,-117.817371,33.787755
57062,"Ekhtiar, Maryam","3660 Wilshire Blvd., Suite 1026",57,female,23.18,0,no,0,0,No,Private,Rural,65.79,39.6,northwest,Los Angeles,Designated Payee Name not Found,1093928632,-118.304981,34.06123
33949,"Nguyen, Tam",500 W Hospital Rd,50,female,25.6,0,no,0,0,Yes,Private,Rural,66.79,27.9,southwest,San Joaquin,JOAQUIN GENERAL HOSP     SAN,1952476525,-121.282211,37.88655
50590,"DerBoghosian, Roberto",6812 woodman ave,30,female,27.7,0,no,0,0,Yes,Private,Urban,105.56,23.8,southwest,Los Angeles,Designated Payee Name not Found,1093929945,-118.430841,34.19447
1283,"RODY, ELIZABETH",1380 Howard Street,33,male,35.245,0,no,0,0,Yes,Private,Urban,81.56,30.2,northeast,San Francisco,AND COUNTY OF SAN      CITY,1417099789,-122.414411,37.77446
23522,"Nguyen, Michael",14445 Olive View Drive,18,female,38.28,0,no,0,0,No,Private,Rural,79.57,23.1,southeast,Los Angeles,ANGELES CO     LOS,1316969934,-118.445531,34.32593
40186,"roitman, martin",1075 Camino del Rio South,46,male,27.6,0,no,0,0,Yes,Private,Urban,61.26,26.5,southwest,San Diego,PRNTHD/ORANGE and      PLANNED,1912976408,-117.153401,32.76403
14218,"Kim, Stanley",2265 W LINCOLN AVE,46,male,43.89,3,no,1,0,Yes,Self-employed,Urban,88.86,33.1,southeast,Orange,Designated Payee Name not Found,1225132483,-117.961981,33.833
59572,"Vendig, Joshua",52 N Tu Su Ln,47,male,29.83,3,no,0,0,No,Self-employed,Rural,56.92,24.7,northwest,Inyo,INDIAN HLTH PROJ     TOIYABE,1659433191,-118.418338,37.362035
46936,"Tester, June",747 52nd Street,23,male,41.91,0,no,0,0,Yes,Private,Urban,58.35,28.2,southeast,Alameda,HOSPITAL MEDICAL   CHILDRENS,1003961251,-122.267631,37.83706
56234,"Ochoa, Guadalupe",1601 Fruitvale Ave.,18,female,20.79,0,no,0,0,Yes,Private,Urban,58,33,southeast,Alameda,CLINICA DE LA RAZA    LA,1144336181,-122.22464,37.780079
24793,"Lapidus, Rachel",222 W 39th Ave,48,female,32.3,2,no,0,0,Yes,Private,Urban,108.68,38.8,northeast,San Mateo,Behavioral Health and Recovery Services,1427242163,-122.299071,37.53113
72091,"Gelber, Jonathan","1000 W Carson St, L4",35,male,30.5,1,no,0,0,Yes,Self-employed,Rural,61.9,32.8,southwest,Los Angeles,ANGELES COUNTY     LOS,1427070168,-118.294551,33.83154
42379,"Myren, Jonnell",11234 Anderson St,19,female,21.7,0,yes,0,0,Yes,Self-employed,Rural,90.35,24.1,southwest,San Bernardino,PHYSICIANS AND       FACULTY,1528018553,-117.263601,34.04968
583,"Ooi, Jane Sue",3291 Loma Vista Rd,21,female,26.4,1,no,0,0,Yes,Govt_job,Rural,105.02,24.6,southwest,Ventura,CO MEDICAL CTR       VENTURA,1629167457,-119.251951,34.27648
51913,"Maani, Natalia",3291 Loma Vista Rd,21,female,21.89,2,no,0,0,Yes,Self-employed,Urban,64.05,28.2,southeast,Ventura,CO MEDICAL CTR       VENTURA,1629167457,-119.251951,34.27648
57964,"Urbanec, Lori","333 S. Beaudry, 29th floor-Cost Recovery Unit",49,female,30.78,1,no,0,0,Yes,Private,Rural,73.06,28,northeast,Los Angeles,ANGELES USD     LOS,1679570980,-118.257382,34.055756
41660,"Weerasethsiri, Rungtiwa",220 E 13th St,56,female,32.3,3,no,0,0,No,Self-employed,Rural,94.97,37.2,northeast,Merced,FACULTY ASSOC MED     MERCED,1285623256,-120.475011,37.29283
24094,"Yee, Veronica",7223 N. Fair Ave.,42,female,24.985,2,no,0,0,No,children,Urban,112.57,28.2,northwest,Los Angeles,VALLEY HEALTH CORP NORTHEAST,1013199264,-118.374717,34.20155
63673,"Solorio Cortes, Gerardo",751 S Bascom Ave,44,male,32.015,2,no,0,0,Yes,Private,Rural,82.57,23.3,northwest,Santa Clara,CLARA MED CTR       SANTA,1063406551,-121.933911,37.31439
52407,"Cushing, Robert",747 W Childs Ave,18,male,30.4,3,no,0,0,No,children,Rural,110.79,20.2,northeast,Merced,VALLEY HEALTH CTR     GOLDEN,1932324449,-120.495712,37.288242
33883,"Kreiner, Shawn",3288 Bell Rd,61,female,21.09,0,no,0,0,Yes,Private,Rural,78.86,25.2,northwest,Placer,VALLEY MEDICAL        SUTTER,1952327256,-121.104591,38.94243
29589,"Termechi, Gisoo",929 N Orange Grove Blvd,57,female,22.23,0,no,0,0,Yes,Private,Rural,71.24,30.7,northeast,Los Angeles,Designated Payee Name not Found,1942450333,-118.151481,34.15788
34924,"Chan, Ellen","3700 California St, #1535",42,female,33.155,1,no,0,0,No,Govt_job,Rural,80.88,23.7,northeast,San Francisco,WEST BAY MEDICAL      SUTTER,1104852789,-122.456251,37.78638
55338,"Callahan, Ann","1000 W Carson St, L4",26,male,32.9,2,yes,0,0,Yes,Self-employed,Urban,211.85,30,southwest,Los Angeles,ANGELES COUNTY     LOS,1427070168,-118.294551,33.83154
51317,"Vargas, Joanne",1000 Vale Terrace,20,male,33.33,0,no,0,0,No,Private,Rural,72.44,41.7,southeast,San Diego,COMM CLINIC       VISTA,1295822658,-117.365697,33.191655
60264,"HARRINGTON, KEVIN","6090 Redwood Blvd, Suite G",23,female,28.31,0,yes,0,0,Yes,Private,Urban,83.73,29.7,northwest,Marin,COMM CLINIC       MARIN,1912091018,-122.562727,38.095772
56871,"Tom, Robert",1725 W. 6th Street,39,female,24.89,3,yes,0,0,Yes,Self-employed,Rural,69.49,33.6,northeast,Los Angeles,"SEDGH, MANAVI and PAKRA COHEN",1528363207,-118.270481,34.0579
68987,"westergren, gabrielle","1001 Potrero Ave., Room 2A5",24,male,40.15,0,yes,0,0,Yes,Private,Urban,83.39,31.4,southeast,San Francisco,FRANCISCO GEN HOSP     SAN,1083648810,-122.405371,37.75529
52584,"Sleiman, Joseph","Family Health Centers of San Diego, Inc., 1809 National Ave.",64,female,30.115,3,no,0,0,Yes,Self-employed,Urban,86.84,29.1,northwest,San Diego,HEALTH CTRS OF SD     FAMILY,1447281936,-117.113408,32.694953
24019,"Khong, Amy",751 S Bascom Ave,62,male,31.46,1,no,0,0,Yes,Private,Rural,92.6,23.9,southeast,Santa Clara,CLARA MED CTR       SANTA,1063406551,-121.933911,37.31439
10756,"Fontecha, Catherine",500 W Hospital Rd,27,female,17.955,2,yes,0,0,Yes,Self-employed,Urban,87.19,41.3,northeast,San Joaquin,JOAQUIN GENERAL HOSP     SAN,1952476525,-121.282211,37.88655
64635,"Baye, Zebayel","26520 Cactus Ave, RUHS",55,male,30.685,0,yes,0,0,Yes,Private,Rural,101.27,41.5,northeast,Riverside,OF RIVERSIDE        COUNTY,1821159195,-117.195861,33.9117
51914,"Ekeke, Nancy","1910 S. Magnolia Ave, Suite 101",55,male,33,0,no,0,0,No,Private,Rural,127.2,24.8,southeast,Los Angeles,JOHN'S WELL CHILD CTR    ST,1073653630,-118.286413,34.039652
26292,"MOBARAK, HAIDEH","2650 S Bristol St, 101&103",35,female,43.34,2,no,0,0,Yes,Private,Urban,184.27,34,southeast,Orange,COAST PEDIATRICS       SOUTH,1568495364,-117.906392,33.719499
47520,"Golez, Candice","900 W 7th St, Suite 102",44,male,22.135,2,no,0,0,Yes,Private,Urban,58.83,42.7,northeast,Kings,COMMUNITY HOSPITAL   REEDLEY,1467678342,-119.658741,36.32544
58112,"Tandinco, Imelda Maria",2101 Courage Dr,19,male,34.4,0,no,0,0,Yes,Private,Urban,108.53,28.5,southwest,Solano,COUNTY HLTH and SOCIAL  SOLANO,1083845275,-122.067441,38.23678
9726,"Aghamyan, Elina",3727 W Sunset Blvd,58,female,39.05,0,no,0,0,Yes,Private,Urban,80.36,34.2,southeast,Los Angeles,CHTCHYAN DDS       SUREN,1598166548,-118.278181,34.09115
60009,"Morgan, Maureen","1001 Potrero Ave., Room 2A5",50,male,25.365,2,no,0,0,No,Self-employed,Rural,86.9,30,northwest,San Francisco,FRANCISCO GEN HOSP     SAN,1083648810,-122.405371,37.75529
46961,"Muzaffer, Riffat",3291 Loma Vista Rd,26,female,22.61,0,no,0,0,Yes,Self-employed,Urban,67.2,20.4,northwest,Ventura,OF VENTURA        COUNTY,1629167457,-119.251951,34.27648
41423,"SHARMA, ANIMESH",9300 Valley Children's Place,24,female,30.21,3,no,1,0,Yes,Private,Urban,114.58,34.2,northwest,Madera,MEDICAL GROUP      SPECIALTY,1013968296,-119.800101,36.88435
31772,"Casey, Ashley",700 S Tustin St,48,male,35.625,4,no,1,0,Yes,Self-employed,Urban,225.19,42.7,northeast,Orange,PRNTHD/ORANGE and      PLANNED,1912976408,-117.836501,33.77678
21556,"Lau, Maria",1200 North State Street,19,female,37.43,0,no,1,0,Yes,Private,Urban,97.62,24.6,northwest,Los Angeles,USC MEDICAL CENTER     LAC,1396756938,-118.208281,34.05963
46135,"Woolridge, Kendall","530 South Main St., Suite LL #02",48,male,31.445,1,no,0,0,No,children,Urban,75.57,17,northeast,Orange,Dental Western,1477627156,-117.876761,33.784787
14007,"Davis, Drew",751 S BASCOM AVENUE,49,male,31.35,1,no,0,0,Yes,Private,Urban,90.29,24.5,northeast,Santa Clara,CLARA MED CTR       SANTA,1063406551,-121.933911,37.31439
52888,"Haar, Sandra",1208 Paseo Verde Dr.,46,female,32.3,2,no,0,0,No,Private,Rural,87.15,32.3,northeast,Merced,UNLIMITED          HORISONS,1184674582,-120.491101,37.32504
9048,"Chen, Frank","888 Paris St, Ste 202",46,male,19.855,0,no,0,0,Yes,Self-employed,Urban,87.2,31.7,northwest,San Francisco,COMMUNITY HEALTH     CHINESE,1487684452,-122.439554,37.715567
40032,"Seybold, Jeannie","725 Welch Rd, Mail Code 5289",43,female,34.4,3,no,0,0,No,Private,Rural,67.42,51.4,southwest,Santa Clara,SALTER PACKARD        LUCILE,1417907940,-122.175211,37.43622
67793,"Merid, Fantaye",1711 Ocean Park Blvd,21,male,31.02,0,no,1,0,Yes,Private,Rural,62.01,37,southeast,Los Angeles,FAMILY HLTH CTR     WESTSIDE,1831287978,-118.466571,34.01285
26063,"CHANG-YU, JIN",751 S Bascom Ave,64,male,25.6,2,no,0,0,Yes,Self-employed,Rural,108.43,20.3,southwest,Santa Clara,CLARA MED CTR       SANTA,1063406551,-121.933911,37.31439
12864,"Kayman, Joshua","LifeLong West Berkeley, 2031 Sixth Street",18,female,38.17,0,no,1,1,Yes,Private,Rural,71.48,29.5,southeast,Alameda,Designated Payee Name not Found,1104021963,-122.296927,37.869092
66746,"Gutierrez, Erasto",4425 S. Central Ave.,51,female,20.6,0,no,0,0,Yes,Private,Urban,137.5,20.4,southwest,Los Angeles,CENTRAL FAMILY       SOUTH,1396891909,-118.256861,34.00311
27195,"Kubena, Jerry",1212 North California Street,47,male,47.52,1,no,0,0,No,children,Rural,89.63,18.1,southeast,San Joaquin,Health Services Behavioral,1215028931,-121.287391,37.96654
29263,"Weber, Nicole","1110 W La Palma Ave, Suite 5",64,female,32.965,0,no,0,0,Yes,Private,Rural,77.18,26,northwest,Orange,NICOLE L MD         SHARKEY,1104023829,-117.932651,33.84665
38798,"Yoon, Soohyun",1333 Meridian Ave,49,male,32.3,3,no,0,0,No,Private,Rural,55.48,29.2,northwest,Santa Clara,HEALTH CENTER OF      INDIAN,1164643862,-121.914211,37.3018
37777,"Steinhoff, Stephanie",751 S. Bascom Ave,31,male,20.4,0,no,0,0,No,Private,Urban,79.88,30.7,southwest,Santa Clara,Designated Payee Name not Found,1104026533,-121.933911,37.31439
57055,"Kane, Adrienne","1001 Potrero Ave., Room 2A5",52,female,38.38,2,no,0,0,No,Private,Rural,89,22.1,northeast,San Francisco,FRANCISCO HEALTH     SAN,1588606206,-122.405371,37.75529
20164,"Faulkenberry Miranda, Christian",290 N Wayte Ln,33,female,24.31,0,no,0,0,No,Private,Urban,95.85,40.3,southeast,Fresno,FACULTY           UNIVERSITY,1073911137,-119.783261,36.7464
16657,"Branson, Norma","4305 University Avenue, Suite 150",47,female,23.6,1,no,0,0,No,Private,Urban,74.23,59,southwest,San Diego,MAESTRA FAMILY CLINIC INC LA,1659490308,-117.101431,32.74917
70135,"Partap, Sonia",725 Welch Rd. MC 5289,38,male,21.12,3,no,0,0,Yes,Private,Urban,177.15,31.6,southeast,Santa Clara,MEDICAL GROUP DIV OF    LPCH,1417907940,-122.175211,37.43622
48475,"Sadighi, Saeid","2701 Firestone Blvd, Suite W",32,male,30.03,1,no,0,0,Yes,Private,Rural,94.69,31.2,southeast,Los Angeles,MEDICAL GROUP INC     SORAYA,1285782664,-118.224693,33.956115
71940,"Ashrafi, Mahmoud","707 Parnassus Ave., Box 0753",19,male,17.48,0,no,0,0,No,Private,Urban,142.93,27.2,northwest,San Francisco,PEDIATRIC DENTISTRY     UCSF,1619041365,-122.460981,37.762549
67822,"Sehgal, Seema",2000 Embarcadero Suite 101,44,female,20.235,1,yes,0,0,No,children,Urban,131.06,,northeast,Alameda,of Alameda County,1659402303,-122.242663,37.780389
61100,"Chiles, Jessica",1209 Whitley Ave,26,female,17.195,2,yes,0,0,Yes,Govt_job,Urban,123.76,39.1,northeast,Kings,HEALTH CENTERS OF THE UNITED,1558632570,-119.562821,36.09787
67622,"Jones, Dwight",550 East Washington Blvd,25,male,23.9,5,no,0,0,No,children,Urban,60.92,18.1,southwest,Del Norte,OPEN DOOR CLN       HUMBOLDT,1497840656,-124.198541,41.77335
72603,"Infante Hernandez, Celia","38780 Trade Center Dr, Suite 1B",19,female,35.15,0,no,0,0,Yes,Self-employed,Urban,130.49,20.6,northwest,Los Angeles,CELIA DDS         HERNANDEZ,1104043447,-118.143025,34.587333
24347,"Owens, Levis","1001 Potrero Ave, Room 2A5",43,female,35.64,1,no,0,0,Yes,Private,Rural,64.13,36.8,southeast,San Francisco,FRANCISCO HEALTH     SAN,1588606206,-122.405371,37.75529
33665,"Laurente, Rex",9375 San Fernando Rd,52,male,34.1,0,no,0,0,Yes,Private,Rural,127.23,45.8,southeast,Los Angeles,Universal Care Dental,1407972219,-118.393562,34.239084
58478,"Magana, Hector",204 East Beach Street,36,female,22.6,2,yes,0,0,Yes,Self-employed,Urban,132.79,29.4,southwest,Santa Cruz,PARA LA GENTE       SALUD,1730169756,-121.753761,36.91188
37220,"Xu, Hongbo",3011 Santa Monica Blvd,64,male,39.16,1,no,0,0,Yes,Private,Rural,89.16,24.5,southeast,Los Angeles,Designated Payee Name not Found,1619313301,-118.470451,34.03687
45296,"Chern, Annie",455 OConnor Dr,63,female,26.98,0,yes,0,0,Yes,Self-employed,Urban,122.36,21.2,northwest,Santa Clara,MEDICINE ASSOC        FAMILY,1932268109,-121.940251,37.32654
38270,"Shah, Megha","10833 Le Conte Avenue, Ste 265",64,male,33.88,0,yes,0,0,Yes,Private,Urban,58.42,27.4,southeast,Los Angeles,DEPT OF PEDIATRICS      UCLA,1982667663,-118.443579,34.063718
2197,"Popat, Mitesh","9 Commercial Blvd, Suite 103",61,male,35.86,0,yes,0,0,Yes,Private,Urban,86.55,32.7,southeast,Marin,COMM CLINIC SAN RAFAEL MARIN,1154503399,-122.532804,38.068643
69353,"Vu, Khue",14571 Magnolia St Ste 106,40,male,32.775,1,yes,0,0,Yes,Self-employed,Urban,82.63,24.5,northeast,Orange,KHUE N MD     VU,1104067925,-117.972871,33.75092
48445,"Ghoussaini, Kristen","744 52nd St, SUITE 5203",25,male,30.59,0,no,1,0,Yes,Private,Urban,92.53,34.2,northeast,Alameda,HOSPITAL MEDICAL   CHILDRENS,1003961251,-122.267581,37.83777
29000,"McLaughlin, Nathan",26520 Cactus Avenue,48,male,30.2,2,no,0,0,Yes,Govt_job,Rural,94.62,30.1,southwest,Riverside,OF RIVERSIDE        COUNTY,1821159195,-117.195861,33.9117
8065,"Willison, Lawrence","16360 Roscoe Blvd, Suite 200",45,male,24.31,5,no,0,0,Yes,Private,Rural,90.79,,southeast,Los Angeles,San Fernando Valley Community Mental Health Center,1164427316,-118.490941,34.22052
68363,"OKAFOR, ESTHER",121 N Beaudry Ave,38,female,27.265,1,no,0,0,No,children,Rural,67.65,15.8,northeast,Los Angeles,ANGELES USD     LOS,1679570980,-118.254075,34.059623
46459,"Cherry, Sean",12586 Avenue 408,18,female,29.165,0,no,0,0,Yes,Govt_job,Rural,195.73,,northeast,Tulare,HEALTHCARE NETWRK     FAMILY,1912093451,-119.291251,36.53057
29798,"Self-Stoico, Allyson",1855 North Fair Oaks Avenue,21,female,16.815,1,no,0,0,No,children,Rural,89.63,15.7,northeast,Los Angeles,HEALTH           COMMUNITY,1871689315,-118.150777,34.177639
9861,"Conner Roscoe, Paris","2333 Lake AVe., @nd Floor",27,female,30.4,3,no,0,0,Yes,Private,Rural,118.41,26.9,northwest,Los Angeles,PLANNED PASADENA    PASADENA,1073669040,-118.132051,34.18619
71489,"Wyner, Erin",7223 N. Fair Ave.,19,male,33.1,0,no,0,0,Yes,Private,Rural,72.93,35,southwest,Los Angeles,VALLEY HEALTH CORP NORTHEAST,1013199264,-118.374717,34.20155
3846,"Lim, Dina","1202 Morena Blvd, suite 300",29,female,20.235,2,no,1,0,Yes,Private,Rural,108.04,24.7,northwest,San Diego,RESEARCH           COMMUNITY,1952328700,-117.202191,32.77035
41680,"mueller, claudia","725 Welch Rd, Mail Code 5289",42,male,26.9,0,no,0,0,No,children,Urban,78.57,,southwest,Santa Clara,MEDICAL GROUP DIV OF    LPCH,1417907940,-122.175211,37.43622
41077,"Rehman, Shahid","1860 Pennsylvania Ave, 300B",60,female,30.5,0,no,0,0,Yes,Private,Urban,92.38,24.8,southwest,Solano,HEALTHCARE GRP      NORTHBAY,1780736736,-122.049311,38.26197
59658,"CHOPRA, JANAK",12555 Garden Grove Blvd Ste 404,31,male,28.595,1,no,0,0,No,Private,Urban,90.68,42,northwest,Orange,JANAK MD         CHOPRA,1215042882,-117.914051,33.77471
2806,"Maagdenberg, Tanya","77 Cadillac Dr, Suite 230",60,male,33.11,3,no,0,0,Yes,Private,Rural,92.41,22,southeast,Sacramento,OB/GYN INC         CAPITAL,1730136680,-121.418141,38.57262
31673,"AHUJA, ARSHJOT",1130 N Riverside Ave,22,male,31.73,0,no,0,1,Yes,Self-employed,Rural,87.53,28.2,northeast,San Bernardino,Designated Payee Name not Found,1285046763,-117.370428,34.120118
50706,"ghorayeb, maya","1001 Potrero Ave, Room 2A5",35,male,28.9,3,no,0,0,No,children,Rural,59.39,12,southwest,San Francisco,FRANCISCO HEALTH     SAN,1588606206,-122.405371,37.75529
61522,"Bholat, Michelle",1920 Colorado Ave,52,female,46.75,5,no,0,0,Yes,Self-employed,Rural,219.77,20,southeast,Los Angeles,Designated Payee Name not Found,1104849959,-118.476811,34.02521
1800,"Kralj, Holly",5125 Skyway,26,male,29.45,0,no,0,0,Yes,Self-employed,Urban,206.21,,northeast,Butte,RIVER HOSPITAL       FEATHER,1518940667,-121.639311,39.74648
64611,"Erlich, Kimberly",400 Parnassus Ave 8th Fl Box 0137,31,female,32.68,1,no,0,0,Yes,Private,Urban,76.75,27.9,northwest,San Francisco,MEDICAL CENTER      UCSF,1689772592,-122.457412,37.763652
9727,"HERNANDEZ-RODRIGUEZ, DAVID",701 W Cesar E. Chavez Ave Ste 201,33,female,33.5,0,yes,1,0,Yes,Private,Rural,87.09,35.5,southwest,Los Angeles,AltaMed Medical Group . PACE Grand Plaza,1952532384,-118.243831,34.06149
41535,"Flores, Jorge",249 W Foothill Blvd,18,male,43.01,0,no,0,0,Yes,Self-employed,Urban,112.31,25.9,southeast,San Bernardino,A FLORES DDS INC       JORGE,1326345497,-117.373329,34.106735
23695,"mcenhill, marilyn","533 Parnassus Ave, Room U585",59,female,36.52,1,no,0,0,Yes,Govt_job,Rural,96.9,24.5,southeast,San Francisco,MEDICAL CENTER      UCSF,1689772592,-122.458977,37.763131
39952,"Cheney, Nancy",329 West 8th Suite 101,56,male,26.695,1,yes,0,0,No,Private,Urban,93.69,24.6,northwest,Kings,HEALTHCARE NETWRK     FAMILY,1467504530,-119.649964,36.327068
31662,"Hashoush, Mariam",1601 Fruitvale Ave.,45,female,33.1,0,no,1,0,Yes,Self-employed,Urban,72.52,38.6,southwest,Alameda,CLINICA DE LA RAZA    LA,1144336181,-122.22464,37.780079
56956,"Reaghard, Deborah","LifeLong East Oakland, 10700 MacArthur Blvd",60,male,29.64,0,no,0,0,No,children,Rural,109.32,14.9,northeast,Alameda,Designated Payee Name not Found,1114132610,-122.164069,37.763926
44650,"Sivapalasingam, Malathy","725 Welch Rd, Mail Code 5289",56,female,25.65,0,no,0,0,Yes,Self-employed,Urban,162.99,27.3,northwest,Santa Clara,MEDICAL GROUP DIV OF    LPCH,1417907940,-122.175211,37.43622
53531,"weintraub, denis",300 E. Buckthorn Street,40,female,29.6,0,no,0,0,No,children,Rural,165.67,23.4,southwest,Los Angeles,CHILDREN'S DENTAL CENTER THE,1740392216,-118.349701,33.95394
32779,"PILRAM, ALICE","3700 California Street, #1560",35,male,38.6,1,no,0,0,No,Private,Rural,91.92,21.5,southwest,San Francisco,WEST BAY MEDICAL      SUTTER,1104852789,-122.456251,37.78638
60692,"Evens, Alexander","1199 Delbon Ave, Suite 5",39,male,29.6,4,no,0,0,No,children,Urban,99.44,21.2,southwest,Stanislaus,ALEXANDER DO INC      EVENS,1164748901,-120.835851,37.51097
34034,"Lam, Christopher",450 W Clara St,30,male,24.13,1,no,0,0,Yes,Self-employed,Urban,214.59,25.6,northwest,Ventura,DEL CAMINO REAL     CLINICAS,1396961884,-119.182243,34.15116
23944,"Johnston, Elizabeth",2767 Olive Hwy,24,male,23.4,0,no,0,0,Yes,Govt_job,Urban,87.85,30.7,southwest,Butte,CORPORATION        OROHEALTH,1013933167,-121.541211,39.5059
9702,"Begian, Armand","480 S VICTORIA AVE, SUITE D",20,male,29.735,0,no,0,0,Yes,Private,Rural,83.74,30.9,northwest,Ventura,Designated Payee Name not Found,1114145828,-119.220731,34.19855
63286,"Kang, Jason","3055 Wilshire Blvd, #110",32,male,46.53,2,no,0,0,Yes,Private,Rural,95.3,22.1,southeast,Los Angeles,Jason C Kang,1114147360,-118.287991,34.06225
40281,"VILLASENOR, MARIA","3291 Loma Vista Rd, PHYSICIAN MANAGEMENT",59,male,37.4,0,no,0,0,Yes,Private,Rural,59.89,30,southwest,Ventura,CO MEDICAL CTR       VENTURA,1629167457,-119.251951,34.27648
19178,"Sairam, Samir","4100 Redwood Rd, Suite #328",55,female,30.14,2,no,0,0,Yes,Private,Urban,100.25,27,southeast,Alameda,MEDICAL PC         SPHERICAL,1053697037,-122.182671,37.79837
13294,"Liu, Jennifer","1001 Potrero Avenue, Room 2A5",57,female,30.495,0,no,0,0,No,children,Rural,93.72,23.8,northwest,San Francisco,FRANCISCO GEN HOSP     SAN,1083648810,-122.405371,37.75529
49942,"Dhaliwal, Manjot",277 E. Front Street,56,male,39.6,0,no,0,0,Yes,Private,Urban,117.48,27.2,southwest,Kern,FAMILY HEALTH      OMNI,1700891660,-119.465713,35.399657
4873,"Vyas, Ajit",1200 North State Street,40,female,33,3,no,0,0,No,children,Rural,78.2,19.1,southeast,Los Angeles,USC MEDICAL CENTER     LAC,1396756938,-118.208281,34.05963
30378,"Stone, David","Contra Costa Regional Medical Center, 2500 Alhambra Avenue",49,female,36.63,3,no,0,0,Yes,Private,Urban,83.23,31.3,southeast,Contra Costa,COSTA CO HLTH SVS     CONTRA,1902975394,-122.114356,37.992485
41273,"Valjalo, Elizabeth","1500 Florida Ave, Suite B",42,male,30,0,yes,0,0,Yes,Private,Urban,86.65,29.7,southwest,Stanislaus,VALLEY HEALTH CTR     GOLDEN,1326252693,-120.995701,37.6657
68946,"Fruzza, Mathew",1000 Vale Terrace Dr,62,female,38.095,2,no,0,0,Yes,Private,Urban,85.09,22.9,northeast,San Diego,COMMUNITY CLINIC       VISTA,1689760100,-117.228631,33.20959
25451,"Ngo, Katie","1503 E March Ln, Suite B",56,male,25.935,0,no,0,1,Yes,Private,Rural,113.78,26.2,northeast,San Joaquin,Designated Payee Name not Found,1508025826,-121.290421,38.00258
27304,"Pierce, Wendy","3860 CALLE FORTUNADA, STE #210",19,male,25.175,0,no,0,0,No,Govt_job,Urban,115.87,38.3,northwest,San Diego,CHILDREN'S HOSPITAL     RADY,1669617197,-117.122761,32.81208
29476,"Huang, Hsin Yi",1200 North State Street,30,female,28.38,1,yes,0,0,Yes,Govt_job,Rural,84.32,27.3,southeast,Los Angeles,USC MEDICAL CENTER     LAC,1396756938,-118.208281,34.05963
56960,"Bath, Kami",1000 Sutter St,60,female,28.7,1,no,0,0,No,Private,Urban,79.61,24.6,southwest,Sutter,HEALTH       AMPLA,1811204555,-121.613001,39.14534
21727,"Koon, Mary","333 S Beaudry Ave, 29th floor-cost recovery unit",56,female,33.82,2,no,0,0,No,Never_worked,Rural,74.04,15.3,northwest,Los Angeles,ANGELES USD     LOS,1679570980,-118.257382,34.055756
45034,"JHA, OM",1200 North State Street,28,female,24.32,1,no,0,0,Yes,Private,Rural,129.73,30.1,northeast,Los Angeles,USC MEDICAL CENTER     LAC,1396756938,-118.208281,34.05963
11883,"Levinsohn, Daniel",1899 W March Ln,18,female,24.09,1,no,0,0,No,Private,Urban,85.51,23.3,southeast,San Joaquin,Designated Payee Name not Found,1114176674,-121.329261,37.98782
53080,"Razani, Nooshin",5220 Claremont Ave,27,male,32.67,0,no,0,0,Yes,Self-employed,Rural,59.71,25.6,southeast,Alameda,HOSPITAL MEDICAL   CHILDRENS,1003961251,-122.260811,37.83845
32093,"Ayyagari, Srikala",4290 Polk Ave,18,female,30.115,0,no,0,0,Yes,Govt_job,Rural,106.8,33.2,northeast,San Diego,COMM CLINIC         MID-CITY,1306827332,-117.102321,32.75173
7319,"Phung, Jennifer",1409 E. Briggsmore Ave,19,female,29.8,0,no,0,0,Yes,Self-employed,Urban,95.4,38.6,southwest,Stanislaus,VALLEY MEDICAL        SUTTER,1669846986,-120.972322,37.66748
46289,"Charoensook, Janet",26520 Cactus Ave,47,female,33.345,0,no,0,0,Yes,Private,Rural,63.88,41.7,northeast,Riverside,OF RIVERSIDE        COUNTY,1821159195,-117.195861,33.9117
6064,"trinh, hoi","6175 Stockton Blvd, 225",54,male,25.1,3,yes,1,0,Yes,Self-employed,Urban,86.67,27.7,southwest,Sacramento,HOI K MD        TRINH,1093763484,-121.435861,38.51275
40455,"Jeng, Bennie","1001 Potrero Ave., Room 2A5",61,male,28.31,1,yes,0,0,Yes,Private,Urban,108.03,28,northwest,San Francisco,FRANCISCO GEN HOSP     SAN,1083648810,-122.405371,37.75529
33505,"Vargas, Juan","1001 Potrero Ave., Room 2A5",24,male,28.5,0,yes,0,1,Yes,Self-employed,Urban,98.45,32.5,northeast,San Francisco,FRANCISCO GEN HOSP     SAN,1083648810,-122.405371,37.75529
43713,"Imus, Paul","8881 Fletcher Parkway, Suite 200",25,male,35.625,0,no,0,0,Yes,Govt_job,Urban,170.69,22.5,northwest,San Diego,MESA PEDIATRIC MED GP    LA,1427268747,-117.007411,32.78384
67105,"Chery, Farah","Family Health Centers of San Diego, Inc., 1809 National Ave.",21,male,36.85,0,no,0,0,No,Private,Rural,62.5,30.9,southeast,San Diego,HEALTH CTRS OF SD     FAMILY,1447281936,-117.113408,32.694953
38066,"Ceci, Kimberly",2023 Vale Rd Ste 107,23,male,32.56,0,no,1,0,Yes,Private,Rural,79.7,30.1,southeast,Contra Costa,MEDICAL CARE        LIFELONG,1487696191,-122.338741,37.95412
41888,"Ghannadi, Max","14103 Victory Blvd, Suite 7",63,male,41.325,3,no,0,0,Yes,Govt_job,Urban,123.13,31.6,northwest,Los Angeles,MEDICAL CLINIC CORP  CASPIAN,1295967297,-118.440396,34.186685
15996,"Parker, Daniel",6800 Palm Avenue,49,male,37.51,2,no,0,0,Yes,Private,Rural,96.43,25.7,southeast,Sonoma,COUNTY HEALTH CENTER    WEST,1538334065,-122.818481,38.39647
41651,"Labbad, Jakleen",3291 Loma Vista Road,18,female,31.35,0,no,0,0,No,children,Urban,151.49,15.3,southeast,Ventura,CO MEDICAL CTR       VENTURA,1629167457,-119.251951,34.27648
2552,"Bender, Jeffrey","6430 Sunset Blvd., Suite 600",51,female,39.5,1,no,0,0,No,children,Urban,90.9,20.8,southwest,Los Angeles,HOSPITAL LOS       CHILDRENS,1265530653,-118.329806,34.097958
27628,"Louie, Trang",41840 Enterprise Circle N,48,male,34.3,3,no,1,0,Yes,Private,Urban,178.38,30.6,southwest,Riverside,HEALTHCARE      NEIGHBORHOOD,1437335148,-117.16979,33.517418
65803,"Tatum, James",1200 North State Street,31,female,31.065,0,no,0,0,Yes,Private,Rural,71.24,27.4,northeast,Los Angeles,USC MEDICAL CENTER     LAC,1396756938,-118.208281,34.05963
5001,"Marchesani, Joseph",5821 Jameson Ct,54,female,21.47,3,no,0,0,No,Private,Urban,72.56,29.8,northwest,Sacramento,and POLANSKY MDS IN     KAMRAS,1073578134,-121.328804,38.651145
4113,"Rooney, Brian",4004 Beyer Blvd,19,male,28.7,0,no,0,0,No,children,Urban,81.48,23.9,southwest,San Diego,YSIDRO HEALTH CTR     SAN,1952364747,-117.047321,32.55894
59163,"Kremer, Mallory","2210 E. ILLINIOS AVE., SUITE 408",44,female,38.06,0,yes,0,1,Yes,Private,Rural,223.66,32.6,southeast,Fresno,FACULTY           UNIVERSITY,1073911137,-119.784661,36.74407
39986,"Reddy, Raju",1200 North State Street,53,male,31.16,1,no,0,1,Yes,Self-employed,Rural,77.99,24,northwest,Los Angeles,USC MEDICAL CENTER     LAC,1396756938,-118.208281,34.05963
42454,"Cheng, Joyce",818 Webster St,19,female,32.9,0,no,0,0,Yes,Private,Urban,74.3,26.1,southwest,Alameda,HEALTH SERVICES INC    ASIAN,1447391719,-122.270941,37.79943
41666,"Hagiya, Ashley",1200 North State Street,61,female,25.08,0,no,0,0,Yes,Private,Rural,217.48,31.4,southeast,Los Angeles,USC MEDICAL CENTER     LAC,1396756938,-118.208281,34.05963
7705,"Smith, Pamela","2101 7th St, BLDG. A",18,female,25.08,0,no,0,0,No,Govt_job,Rural,70.79,23.4,northeast,Kern,Designated Payee Name not Found,1114221785,-119.349901,35.59335
32536,"Contreras-Cerrillo, Ana",1809 National Avenue,61,male,43.4,0,no,1,0,Yes,Private,Urban,70.36,27.9,southwest,San Diego,HEALTH CTRS OF SD     FAMILY,1447281936,-117.146861,32.70123
52650,"Mortazavi, Behnoush",400 W 30th St,21,male,25.7,4,yes,0,0,Yes,Private,Urban,83.91,41.8,southwest,Los Angeles,PARENTHOOD OF LA     PLANNED,1093969115,-118.275701,34.02354
50883,"nadipally, sudhakar",449 S. Madera Ave,20,male,27.93,0,no,0,0,No,children,Urban,110.74,16.1,northeast,Fresno,"HEALTH TEAM, INC      VALLEY",1962567388,-120.060317,36.728977
32985,"Newsom, Marie",725 Welch Road,31,female,23.6,2,no,0,1,Yes,Govt_job,Rural,93.18,35.2,southwest,Santa Clara,MEDICAL GROUP DIV OF    LPCH,1417907940,-122.175211,37.43622
51717,"Fontecha, Ernest",50100 Golsh Rd.,45,male,28.7,2,no,1,1,Yes,Self-employed,Urban,78.29,45.1,southwest,San Diego,HEALTH COUNCIL        INDIAN,1861449522,-116.954196,33.277142
43620,"Lundy, Miriam","9 Commercial Blvd, Suite 103",44,female,23.98,2,no,0,0,Yes,Private,Rural,130.51,28.1,southeast,Marin,COMM CLINIC SAN RAFAEL MARIN,1154503399,-122.532804,38.068643
61207,"Lang, Rebecca",530 South Main St.,62,female,39.2,0,no,0,0,Yes,Private,Rural,128.17,22.6,southwest,Orange,Dental Western,1477627156,-117.867453,33.779297
66996,"Dayal, Rakhi","UC Irvine Medical Center, 101 The City Drive South",29,male,34.4,0,yes,0,0,Yes,Private,Urban,143.5,28,southwest,Orange,IRVINE UNI PHY and SURG    UC,1407058787,-117.876761,33.784787
8165,"Hodges, Shimeaka",501 Sixth St.,43,male,26.03,0,no,0,0,No,Private,Rural,64.07,26.6,northeast,Kern,COMMUNITY HOSPITAL   REEDLEY,1528324167,-119.459231,35.14441
16900,"Boparai-khera, Preeti","631 E. Alvin Drive, Suite C",51,male,23.21,1,yes,0,1,Yes,Private,Rural,81.96,30.7,southeast,Monterey,Designated Payee Name not Found,1033242144,-121.631611,36.70405
58951,"Rodriguez, Rosa",808 WEST 58TH STREET,19,male,30.25,0,yes,0,0,No,Private,Urban,61.37,34.3,southeast,Los Angeles,JOHN'S WELL CHILD AND    ST,1285874826,-118.287611,33.98949
68385,"Shuff, Michelle",2550 Foothill Blvd.,38,female,28.93,1,no,1,0,Yes,Self-employed,Rural,201.28,46.9,southeast,Los Angeles,INC Clinics,1932244985,-118.097491,34.149806
37663,"Simon, Peter","6090 Redwood Blvd, suite G",37,male,30.875,3,no,0,0,No,children,Urban,67.66,19.6,northwest,Marin,COMM CLINIC SAN RAFAEL MARIN,1154503399,-122.562727,38.095772
12889,"Asatryan, Sona","530 South Main St., #116",22,male,31.35,1,no,0,1,Yes,Private,Urban,197.75,,northwest,Orange,Dental Western,1477627156,-117.867453,33.779297
50054,"Ramirez, Gabriel",844 Old Tunnel Road,21,male,23.75,2,no,0,0,Yes,Private,Urban,67.34,16.5,northwest,Nevada,SIERRA MEDICAL       WESTERN,1063496396,-121.031221,39.23605
40563,"Brixie, Rosemary","2401 W. Turner Rd, Suite 450",24,female,25.27,0,no,0,0,Yes,Self-employed,Rural,169.62,25,northeast,San Joaquin,MEDICAL CTRS       COMMUNITY,1881685964,-121.305571,38.14614
46541,"Liu, Edward",4361 Railroad Ave,57,female,28.7,0,no,0,0,No,children,Urban,129.65,14.3,southwest,Alameda,COMMUNITY HEALTH      AXIS,1669403390,-121.874201,37.66162
38702,"Devaraj, Alwyn","4343 Yaqui Pass Rd., PO Box 2369",56,male,32.11,1,no,0,0,Yes,Govt_job,Rural,132.38,45.8,northeast,San Diego,COMMUNITY HEALTH     BORREGO,1134144165,-116.329051,33.19398
60017,"Reyes, Maribel",1601 Fruitvale Ave.,27,male,33.66,0,no,0,0,Yes,Private,Rural,58.46,28.1,southeast,Alameda,CLINICA DE LA RAZA    LA,1144336181,-122.22464,37.780079
53059,"BOTROUS, MATTA","82204 Hwy. 111, Suite A",51,male,22.42,0,no,0,0,No,Never_worked,Rural,73.37,23.1,northeast,Riverside,MATTA JOSEPH MATTA BOTROUS,1114262987,-116.237551,33.71329
23709,"Salvetti, Britta",747 52nd Street,19,male,30.4,0,no,0,0,No,Private,Rural,103.12,28.2,southwest,Alameda,HOSP MED CTR       CHILDRENS,1003961251,-122.267631,37.83706
6727,"Berger-Vernace, Jennifer",200 C St,39,male,28.3,1,yes,0,0,Yes,Govt_job,Urban,73.5,27.1,southwest,Stanislaus,VALLEY HEALTH CTR     GOLDEN,1033322870,-121.125811,37.46706
29452,"Watkins, Brigitte",26520 Cactus Ave,58,male,35.7,0,no,0,0,Yes,Private,Urban,85.35,38.9,southwest,Riverside,OF RIVERSIDE        COUNTY,1821159195,-117.195861,33.9117
1865,"Oji, Emmy",2550 Merced St,20,male,35.31,1,no,0,0,Yes,Private,Rural,92.38,24.4,southeast,Fresno,FACULTY           UNIVERSITY,1073911137,-119.787391,36.74092
9096,"Una, Nicole",330 Ellis St Fl 6,45,male,30.495,2,no,1,1,Yes,Private,Urban,100.51,22.9,northwest,San Francisco,Nicole S Una,1114284072,-122.411701,37.78529
42167,"Thor, Jana",1700 Mount Vernon Ave,35,female,31,1,no,0,0,No,Private,Rural,149.34,47,southwest,Kern,COUNTY HOSPITAL      KERN,1427176569,-118.969811,35.38221
52096,"Fouladi Rad, Shervin",8041 Newman Ave,31,male,30.875,0,no,0,0,No,children,Urban,155.17,16.8,northeast,Orange,HEALTH SERVICES CORP ALTAMED,1306015425,-117.988351,33.70517
17477,"Chen, Iun-Iu","Petaluma Health Center, 1179 N McDowell Blvd",50,female,27.36,0,no,0,0,No,children,Urban,81.45,21.6,northeast,,"HEALTH CTR, INC     PETALUMA",1588656268,-122.62151,38.253263
32424,"Avelar, Taurino","1000 West Carson Street, L4",32,female,44.22,0,no,0,0,Yes,Private,Rural,110.15,25.8,southeast,Los Angeles,ANGELES COUNTY     LOS,1427070168,-118.294551,33.83154
33794,"Avetisyan, Emma","801 S Chevy Chase Dr, Suite 20",51,female,33.915,0,no,0,0,No,Private,Rural,91.96,21.9,northeast,Los Angeles,COMMUNITY      COMPREHENSIVE,1245210749,-118.240391,34.13675
35597,"Evangelista, Wendy",1200 North State Street,38,female,37.73,0,no,0,0,Yes,Private,Urban,234.69,32.9,southeast,Los Angeles,USC MEDICAL CENTER     LAC,1396756938,-118.208281,34.05963
12060,"Burns, Lorianne",747 52nd St,42,male,26.07,1,yes,0,1,Yes,Self-employed,Urban,108.24,37.1,southeast,Alameda,Lorianne Burns,1114305539,-122.267631,37.83706
55837,"TRAN, MICHELLE","2650 S Bristol St, Suite 101",18,female,33.88,0,no,0,0,No,Private,Urban,82.09,18.5,southeast,Orange,COAST PEDIATRICS       SOUTH,1568495364,-117.886101,33.71122
225,"Galan, Igor","801 E Chapel St, Suite 1",19,female,30.59,2,no,0,0,No,Private,Rural,87.72,32.3,northwest,Santa Barbara,SPINE AND SPORTSCARE    LAGS,1447244256,-120.424401,34.95462
19154,"Su, Annette","1332 Natividad Rd, Suite B",51,female,25.8,1,no,0,0,Yes,Private,Urban,82.7,25.7,southwest,Monterey,Designated Payee Name not Found,1114313640,-121.634471,36.6993
25588,"Rusia, Akash",1200 North State Street,46,male,39.425,1,no,0,0,Yes,Private,Rural,91.08,39.6,northeast,Los Angeles,USC MEDICAL CENTER     LAC,1396756938,-118.208281,34.05963
38518,"Ngsee, Stephanie",1900 E Slauson Ave,18,male,25.46,0,no,0,0,No,Private,Rural,86,30.5,northeast,Los Angeles,HEALTH SERVICES      ALTAMED,1790177582,-118.237374,33.989099
39677,"Moncayo, Diane","12826 Philadelphia St, Suite A",57,male,42.13,1,yes,0,0,Yes,Private,Urban,62.67,21.3,southeast,Los Angeles,Designated Payee Name not Found,1114336997,-118.038921,33.9787
16450,"Tsang, Jennifer","1141 Pear Tree Ln, Suite 100",62,female,31.73,0,no,0,0,Yes,Self-employed,Urban,74.63,28.3,northeast,Napa,HEALTH CLINIC OLE  COMMUNITY,1700976503,-122.292101,38.32092
24655,"Montalvo, Omayra",900 Main St,59,male,29.7,2,no,0,0,Yes,Private,Urban,116.29,21.5,southeast,Imperial,DE SALUD DEL        CLINICAS,1649269747,-115.528548,32.978571
17573,"Kiflezghie, Bisrat",1200 N. State St.,37,male,36.19,0,no,0,0,No,children,Rural,120.35,12.2,southeast,Los Angeles,USC MEDICAL CENTER     LAC,1396756938,-118.208281,34.05963
31618,"Garnett, Melissa",1850 Spring Ridge Dr,64,male,40.48,0,no,0,0,Yes,Private,Urban,91.28,24.6,southeast,Lassen,HEALTH CTR      NORTHEASTERN,1477563518,-120.625611,40.43777
37623,"To, Thi",1691 The Alameda,38,male,28.025,1,no,0,0,No,children,Urban,86.07,23.1,northeast,Santa Clara,PARENTHOOD ASSC      PLANNED,1043263189,-121.919681,37.33694
19062,"Ismail, Habiba",808 W. 58th Street,33,female,38.9,3,no,0,0,Yes,Private,Rural,234.52,26.8,southwest,Los Angeles,JOHN'S WELL CHILD AND    ST,1285874826,-118.287611,33.98949
52526,"Mikhailova, Valeriya",22331 Mission Blvd,46,female,30.2,2,no,0,0,No,Private,Urban,120.62,24.4,southwest,Alameda,VASQUEZ HLTH CT     TIBURCIO,1851389696,-122.087381,37.67401
18349,"White, Shantal",101 West Coast Rd,46,female,28.05,1,no,0,0,No,children,Urban,80.32,14.2,southeast,Humboldt,RURAL HEALTH CT     REDWOODS,1235206087,-123.813362,40.117032
24760,"Thompson, Summer","1141 Pear Tree Lane, Suite 100",53,male,31.35,0,no,0,0,Yes,Private,Urban,78.97,27.6,southeast,Napa,HEALTH CLINIC OLE  COMMUNITY,1700976503,-122.292101,38.32092
28961,"Abalos, Tigon",401 E School Ave,34,female,38,3,no,0,0,No,children,Rural,79.57,16.8,southwest,Tulare,HEALTHCARE NETWORK    FAMILY,1730502725,-119.288431,36.33257
33397,"PANGANIBAN, VIRGILIO","9604 Artesia Blvd, SUITE 103",20,female,31.79,2,no,0,0,No,children,Urban,95.68,16.3,southeast,Los Angeles,VIRGILIO C       PANGANIBAN,1144475898,-118.128861,33.87449
65964,"Greenlee, James",5290 State St.,63,female,36.3,0,no,1,0,Yes,Govt_job,Rural,102.11,28.9,southeast,Lake,HEALTH CLEARLAKE   ADVENTIST,1316937121,-122.832821,38.97741
55482,"Smith, David",1500 21st Street,54,female,47.41,0,yes,0,0,Yes,Govt_job,Urban,178.09,26.3,southeast,Sacramento,FOR AIDS RESEARCH     CENTER,1447297379,-121.481501,38.57059
65261,"Chien, Peter","9727 Elk Grove Florin Road, Suite 155",54,male,30.21,0,no,1,1,Yes,Private,Urban,119.7,32.8,northwest,Sacramento,PARK DDS INC   S,1558763771,-121.370761,38.40434
29176,"Matta, Yara","250 SOUTH G STREET, SAC HEALTH SYSTEM",49,male,25.84,2,yes,0,0,No,children,Rural,84.05,18.1,northwest,San Bernardino,HEALTH SYSTEM     SAC,1801270137,-117.298694,34.09684
21122,"Canaday, Dian","747 52nd St, Room 245",28,male,35.435,0,no,0,0,No,Private,Rural,74.34,22.5,northeast,Alameda,Dian Canaday,1073932307,-122.267631,37.83706
61118,"KIM, KISUNG",2450 Sister Mary Columba Drive,54,female,46.7,2,no,0,0,No,children,Rural,118.89,15.4,southwest,Tehama,MEDICAL GROUP INC     LASSEN,1003955758,-122.221391,40.149258
40982,"Glenn, Erica",5220 Claremont,25,female,28.595,0,no,0,0,No,Private,Urban,92.1,28.6,northeast,Alameda,Erica Glenn,1073947495,-122.261222,37.838646
